[
{"id":"1","name":"Andkhvoy","country_id":"2","state_id":"8","zone_id":"3","latitude":"36.93165915840","longitude":"65.10149369190","created_at":null,"updated_at":null},
{"id":"2","name":"Asadabad","country_id":"2","state_id":"19","zone_id":"0","latitude":"34.86600003970","longitude":"71.15000458590","created_at":null,"updated_at":null},
{"id":"3","name":"Aybak","country_id":"2","state_id":"28","zone_id":"0","latitude":"36.26100014750","longitude":"68.04000050980","created_at":null,"updated_at":null},
{"id":"4","name":"Baghlan","country_id":"2","state_id":"6","zone_id":"3","latitude":"36.13933026030","longitude":"68.69925858450","created_at":null,"updated_at":null},
{"id":"5","name":"Balkh","country_id":"2","state_id":"2","zone_id":"3","latitude":"36.75011985170","longitude":"66.89973018280","created_at":null,"updated_at":null},
{"id":"6","name":"Bamian","country_id":"2","state_id":"3","zone_id":"0","latitude":"34.82106447250","longitude":"67.52103592820","created_at":null,"updated_at":null},
{"id":"7","name":"Baraki Barak","country_id":"2","state_id":"21","zone_id":"3","latitude":"33.96670209600","longitude":"68.96670354040","created_at":null,"updated_at":null},
{"id":"8","name":"Chaghcharan","country_id":"2","state_id":"10","zone_id":"0","latitude":"34.51670110350","longitude":"65.25000062520","created_at":null,"updated_at":null},
{"id":"9","name":"Charikar","country_id":"2","state_id":"25","zone_id":"3","latitude":"35.01826173810","longitude":"69.16791214890","created_at":null,"updated_at":null},
{"id":"10","name":"Farah","country_id":"2","state_id":"7","zone_id":"3","latitude":"32.39172955220","longitude":"62.09681921270","created_at":null,"updated_at":null},
{"id":"11","name":"Feyzabad","country_id":"2","state_id":"5","zone_id":"3","latitude":"37.12976076160","longitude":"70.57924719130","created_at":null,"updated_at":null},
{"id":"12","name":"Gardiz","country_id":"2","state_id":"27","zone_id":"3","latitude":"33.60005373030","longitude":"69.21462764370","created_at":null,"updated_at":null},
{"id":"13","name":"Ghazni","country_id":"2","state_id":"9","zone_id":"3","latitude":"33.56331178690","longitude":"68.41782873420","created_at":null,"updated_at":null},
{"id":"14","name":"Herat","country_id":"2","state_id":"12","zone_id":"3","latitude":"34.33000917460","longitude":"62.16999304080","created_at":null,"updated_at":null},
{"id":"15","name":"Jalalabad","country_id":"2","state_id":"22","zone_id":"3","latitude":"34.44152691550","longitude":"70.43610347380","created_at":null,"updated_at":null},
{"id":"16","name":"Kabul","country_id":"2","state_id":"14","zone_id":"3","latitude":"34.51669028630","longitude":"69.18326004930","created_at":null,"updated_at":null},
{"id":"17","name":"Kandahar","country_id":"2","state_id":"15","zone_id":"3","latitude":"31.61002016100","longitude":"65.69494584030","created_at":null,"updated_at":null},
{"id":"18","name":"Karokh","country_id":"2","state_id":"12","zone_id":"3","latitude":"34.48676963200","longitude":"62.59177608120","created_at":null,"updated_at":null},
{"id":"19","name":"Kondoz","country_id":"2","state_id":"17","zone_id":"3","latitude":"36.72795066230","longitude":"68.87252966190","created_at":null,"updated_at":null},
{"id":"20","name":"Lashkar Gah","country_id":"2","state_id":"11","zone_id":"0","latitude":"31.58299802240","longitude":"64.35999955340","created_at":null,"updated_at":null},
{"id":"21","name":"Mahmud-E Eraqi","country_id":"2","state_id":"16","zone_id":"0","latitude":"35.01669607910","longitude":"69.33330064900","created_at":null,"updated_at":null},
{"id":"22","name":"Mayda Shahr","country_id":"2","state_id":"32","zone_id":"0","latitude":"34.45000208720","longitude":"68.79999662600","created_at":null,"updated_at":null},
{"id":"23","name":"Mazar-e Sharif","country_id":"2","state_id":"2","zone_id":"3","latitude":"36.69999371240","longitude":"67.10002803430","created_at":null,"updated_at":null},
{"id":"24","name":"Mehtar Lam","country_id":"2","state_id":"20","zone_id":"3","latitude":"34.65000001130","longitude":"70.16670051740","created_at":null,"updated_at":null},
{"id":"25","name":"Meymaneh","country_id":"2","state_id":"8","zone_id":"0","latitude":"35.93022157700","longitude":"64.77009273160","created_at":null,"updated_at":null},
{"id":"26","name":"Pol-e Khomri","country_id":"2","state_id":"6","zone_id":"3","latitude":"35.95107301740","longitude":"68.70111893600","created_at":null,"updated_at":null},
{"id":"27","name":"Qala i Naw","country_id":"2","state_id":"4","zone_id":"0","latitude":"34.98300013100","longitude":"63.13329963670","created_at":null,"updated_at":null},
{"id":"28","name":"Qalat","country_id":"2","state_id":"33","zone_id":"3","latitude":"32.11226340640","longitude":"66.88675939830","created_at":null,"updated_at":null},
{"id":"29","name":"Sheberghan","country_id":"2","state_id":"13","zone_id":"3","latitude":"36.65798077290","longitude":"65.73830236700","created_at":null,"updated_at":null},
{"id":"30","name":"Taloqan","country_id":"2","state_id":"30","zone_id":"3","latitude":"36.72999904090","longitude":"69.54000364000","created_at":null,"updated_at":null},
{"id":"31","name":"Zaranj","country_id":"2","state_id":"23","zone_id":"0","latitude":"31.11200107930","longitude":"61.88699751860","created_at":null,"updated_at":null},
{"id":"32","name":"Zareh Sharan","country_id":"2","state_id":"26","zone_id":"3","latitude":"32.85000016050","longitude":"68.41670453290","created_at":null,"updated_at":null},
{"id":"33","name":"Ambriz","country_id":"3","state_id":"34","zone_id":"0","latitude":"-7.85498695998","longitude":"13.12502803410","created_at":null,"updated_at":null},
{"id":"34","name":"Benguela","country_id":"3","state_id":"35","zone_id":"8","latitude":"-12.57826454790","longitude":"13.40723303090","created_at":null,"updated_at":null},
{"id":"35","name":"Cabinda","country_id":"3","state_id":"37","zone_id":"8","latitude":"-5.55962319044","longitude":"12.18999466820","created_at":null,"updated_at":null},
{"id":"36","name":"Cacolo","country_id":"3","state_id":"45","zone_id":"0","latitude":"-10.14962725950","longitude":"19.26000239940","created_at":null,"updated_at":null},
{"id":"37","name":"Calulo","country_id":"3","state_id":"41","zone_id":"0","latitude":"-9.99961057652","longitude":"14.90001013050","created_at":null,"updated_at":null},
{"id":"38","name":"Camabatela","country_id":"3","state_id":"40","zone_id":"8","latitude":"-8.18959185907","longitude":"15.37000728220","created_at":null,"updated_at":null},
{"id":"39","name":"Cangamba","country_id":"3","state_id":"48","zone_id":"0","latitude":"-13.69959145220","longitude":"19.86001745470","created_at":null,"updated_at":null},
{"id":"40","name":"Capenda-Camulemba","country_id":"3","state_id":"44","zone_id":"0","latitude":"-9.41959430048","longitude":"18.43002722030","created_at":null,"updated_at":null},
{"id":"41","name":"Caxito","country_id":"3","state_id":"34","zone_id":"8","latitude":"-8.57954221714","longitude":"13.65998246120","created_at":null,"updated_at":null},
{"id":"42","name":"Cazombo","country_id":"3","state_id":"48","zone_id":"0","latitude":"-11.88957273470","longitude":"22.90003861360","created_at":null,"updated_at":null},
{"id":"43","name":"Chitado","country_id":"3","state_id":"39","zone_id":"0","latitude":"-17.31962888710","longitude":"13.92001826850","created_at":null,"updated_at":null},
{"id":"44","name":"Cubal","country_id":"3","state_id":"35","zone_id":"0","latitude":"-13.03958005900","longitude":"14.23999873720","created_at":null,"updated_at":null},
{"id":"45","name":"Cuito Caunavale","country_id":"3","state_id":"38","zone_id":"0","latitude":"-15.15960569370","longitude":"19.16998205430","created_at":null,"updated_at":null},
{"id":"46","name":"Dondo","country_id":"3","state_id":"40","zone_id":"0","latitude":"-9.69001707066","longitude":"14.43001297880","created_at":null,"updated_at":null},
{"id":"47","name":"Dundo","country_id":"3","state_id":"44","zone_id":"0","latitude":"-7.38002887078","longitude":"20.82998408880","created_at":null,"updated_at":null},
{"id":"48","name":"Huambo","country_id":"3","state_id":"42","zone_id":"8","latitude":"-12.74998533240","longitude":"15.76000931670","created_at":null,"updated_at":null},
{"id":"49","name":"Lobito","country_id":"3","state_id":"35","zone_id":"8","latitude":"-12.37000852570","longitude":"13.54123001980","created_at":null,"updated_at":null},
{"id":"50","name":"Luanda","country_id":"3","state_id":"46","zone_id":"8","latitude":"-8.83828611363","longitude":"13.23442704130","created_at":null,"updated_at":null},
{"id":"51","name":"Luau","country_id":"3","state_id":"48","zone_id":"8","latitude":"-10.70954140330","longitude":"22.23000199250","created_at":null,"updated_at":null},
{"id":"52","name":"Lucapa","country_id":"3","state_id":"44","zone_id":"8","latitude":"-8.41960365920","longitude":"20.74001542020","created_at":null,"updated_at":null},
{"id":"53","name":"Luena","country_id":"3","state_id":"48","zone_id":"8","latitude":"-11.79004392610","longitude":"19.90001501330","created_at":null,"updated_at":null},
{"id":"54","name":"Luiana","country_id":"3","state_id":"38","zone_id":"0","latitude":"-17.36954832070","longitude":"22.99998083360","created_at":null,"updated_at":null},
{"id":"55","name":"Lumbala Nguimbo","country_id":"3","state_id":"48","zone_id":"0","latitude":"-14.09961871460","longitude":"21.44002437200","created_at":null,"updated_at":null},
{"id":"56","name":"Malanje","country_id":"3","state_id":"47","zone_id":"8","latitude":"-9.54000038772","longitude":"16.34002559270","created_at":null,"updated_at":null},
{"id":"57","name":"Mavinga","country_id":"3","state_id":"38","zone_id":"0","latitude":"-15.78954140340","longitude":"20.36003861360","created_at":null,"updated_at":null},
{"id":"58","name":"Mbanza-Congo","country_id":"3","state_id":"51","zone_id":"8","latitude":"-6.26960569369","longitude":"14.23999873720","created_at":null,"updated_at":null},
{"id":"59","name":"Menongue","country_id":"3","state_id":"38","zone_id":"8","latitude":"-14.66661252970","longitude":"17.69999426140","created_at":null,"updated_at":null},
{"id":"60","name":"Muconda","country_id":"3","state_id":"45","zone_id":"0","latitude":"-10.59962563190","longitude":"21.31998001980","created_at":null,"updated_at":null},
{"id":"61","name":"Mucusso","country_id":"3","state_id":"38","zone_id":"0","latitude":"-18.01953448610","longitude":"21.42999914420","created_at":null,"updated_at":null},
{"id":"62","name":"Namibe","country_id":"3","state_id":"49","zone_id":"8","latitude":"-15.19004311230","longitude":"12.16002233750","created_at":null,"updated_at":null},
{"id":"63","name":"Ndalatando","country_id":"3","state_id":"40","zone_id":"8","latitude":"-9.29954994826","longitude":"14.90998368190","created_at":null,"updated_at":null},
{"id":"64","name":"Nzeto","country_id":"3","state_id":"51","zone_id":"8","latitude":"-7.22959877638","longitude":"12.86003128930","created_at":null,"updated_at":null},
{"id":"65","name":"Ondjiva","country_id":"3","state_id":"39","zone_id":"8","latitude":"-17.06961830770","longitude":"15.73003698600","created_at":null,"updated_at":null},
{"id":"66","name":"Quibala","country_id":"3","state_id":"41","zone_id":"8","latitude":"-10.72959185910","longitude":"14.97995357120","created_at":null,"updated_at":null},
{"id":"67","name":"Saurimo","country_id":"3","state_id":"45","zone_id":"8","latitude":"-9.65957965204","longitude":"20.39001094430","created_at":null,"updated_at":null},
{"id":"68","name":"Soyo","country_id":"3","state_id":"51","zone_id":"8","latitude":"-6.12961423861","longitude":"12.36998368190","created_at":null,"updated_at":null},
{"id":"69","name":"Sumbe","country_id":"3","state_id":"41","zone_id":"8","latitude":"-11.21002765010","longitude":"13.84999670270","created_at":null,"updated_at":null},
{"id":"70","name":"Tombua","country_id":"3","state_id":"49","zone_id":"0","latitude":"-15.80003171910","longitude":"11.85998897160","created_at":null,"updated_at":null},
{"id":"71","name":"Waku Kungo","country_id":"3","state_id":"41","zone_id":"8","latitude":"-11.35952756870","longitude":"15.11999670270","created_at":null,"updated_at":null},
{"id":"72","name":"Xangongo","country_id":"3","state_id":"39","zone_id":"0","latitude":"-16.74002602250","longitude":"14.96998001980","created_at":null,"updated_at":null},
{"id":"73","name":"Berat","country_id":"6","state_id":"83","zone_id":"6","latitude":"40.70999704890","longitude":"19.97199958470","created_at":null,"updated_at":null},
{"id":"74","name":"Corovode","country_id":"6","state_id":"83","zone_id":"6","latitude":"40.51670402620","longitude":"20.23329662780","created_at":null,"updated_at":null},
{"id":"75","name":"Elbasan","country_id":"6","state_id":"86","zone_id":"6","latitude":"41.12150677390","longitude":"20.08382808300","created_at":null,"updated_at":null},
{"id":"76","name":"Fier","country_id":"6","state_id":"79","zone_id":"6","latitude":"40.73000402330","longitude":"19.57300259590","created_at":null,"updated_at":null},
{"id":"77","name":"Gramsh","country_id":"6","state_id":"86","zone_id":"6","latitude":"40.86669600810","longitude":"20.19999651650","created_at":null,"updated_at":null},
{"id":"78","name":"Librazhd","country_id":"6","state_id":"86","zone_id":"6","latitude":"41.20000210700","longitude":"20.36670359640","created_at":null,"updated_at":null},
{"id":"79","name":"Lushnje","country_id":"6","state_id":"79","zone_id":"6","latitude":"40.94000113200","longitude":"19.71600347970","created_at":null,"updated_at":null},
{"id":"80","name":"Pogradec","country_id":"6","state_id":"80","zone_id":"0","latitude":"40.89999611930","longitude":"20.66400061660","created_at":null,"updated_at":null},
{"id":"81","name":"Abu Dhabi","country_id":"8","state_id":"98","zone_id":"2","latitude":"24.46668357240","longitude":"54.36659338260","created_at":null,"updated_at":null},
{"id":"82","name":"Al Ayn","country_id":"8","state_id":"98","zone_id":"2","latitude":"24.23047060040","longitude":"55.73999792360","created_at":null,"updated_at":null},
{"id":"83","name":"Al Fujayrah","country_id":"8","state_id":"100","zone_id":"2","latitude":"25.12343935040","longitude":"56.33748083380","created_at":null,"updated_at":null},
{"id":"84","name":"Dubai","country_id":"8","state_id":"99","zone_id":"2","latitude":"25.22999615380","longitude":"55.27997432340","created_at":null,"updated_at":null},
{"id":"85","name":"Jabal Ali","country_id":"8","state_id":"99","zone_id":"0","latitude":"24.97623903300","longitude":"55.01074011110","created_at":null,"updated_at":null},
{"id":"86","name":"Ras al Khaymah","country_id":"8","state_id":"101","zone_id":"2","latitude":"25.79153810530","longitude":"55.94277624390","created_at":null,"updated_at":null},
{"id":"87","name":"Sharjah","country_id":"8","state_id":"102","zone_id":"2","latitude":"25.37138287250","longitude":"55.40647822960","created_at":null,"updated_at":null},
{"id":"88","name":"Umm al Qaywayn","country_id":"8","state_id":"103","zone_id":"2","latitude":"25.56527284650","longitude":"55.55334265020","created_at":null,"updated_at":null},
{"id":"89","name":"28 de Noviembre","country_id":"9","state_id":"129","zone_id":"0","latitude":"-51.65003985730","longitude":"-72.30001611500","created_at":null,"updated_at":null},
{"id":"90","name":"Abra Pampa","country_id":"9","state_id":"128","zone_id":"0","latitude":"-22.71666379920","longitude":"-65.69997969730","created_at":null,"updated_at":null},
{"id":"91","name":"Alto Rio Sanguer","country_id":"9","state_id":"124","zone_id":"0","latitude":"-45.03328611380","longitude":"-70.83328393720","created_at":null,"updated_at":null},
{"id":"92","name":"Anatuya","country_id":"9","state_id":"112","zone_id":"0","latitude":"-28.46613197960","longitude":"-62.83330713060","created_at":null,"updated_at":null},
{"id":"93","name":"Azul","country_id":"9","state_id":"108","zone_id":"19","latitude":"-36.77962970100","longitude":"-59.86999963540","created_at":null,"updated_at":null},
{"id":"94","name":"Bahia Blanca","country_id":"9","state_id":"108","zone_id":"19","latitude":"-38.74002683640","longitude":"-62.26502140470","created_at":null,"updated_at":null},
{"id":"95","name":"Balcarce","country_id":"9","state_id":"108","zone_id":"0","latitude":"-37.83331215540","longitude":"-58.24999515950","created_at":null,"updated_at":null},
{"id":"96","name":"Belen","country_id":"9","state_id":"115","zone_id":"0","latitude":"-27.64959267290","longitude":"-67.03328332690","created_at":null,"updated_at":null},
{"id":"97","name":"Buenos Aires","country_id":"9","state_id":"108","zone_id":"19","latitude":"-34.60250160850","longitude":"-58.39753137370","created_at":null,"updated_at":null},
{"id":"98","name":"Cafayate","country_id":"9","state_id":"106","zone_id":"21","latitude":"-26.08291827520","longitude":"-65.96660424970","created_at":null,"updated_at":null},
{"id":"99","name":"Campana","country_id":"9","state_id":"108","zone_id":"19","latitude":"-34.15999631880","longitude":"-58.95997766280","created_at":null,"updated_at":null},
{"id":"100","name":"Carhue","country_id":"9","state_id":"108","zone_id":"0","latitude":"-37.18286090220","longitude":"-62.73331323410","created_at":null,"updated_at":null},
{"id":"101","name":"Catamarca","country_id":"9","state_id":"115","zone_id":"24","latitude":"-28.47000771200","longitude":"-65.78000065270","created_at":null,"updated_at":null},
{"id":"102","name":"Cerrillos","country_id":"9","state_id":"106","zone_id":"0","latitude":"-24.89963132850","longitude":"-65.48330041670","created_at":null,"updated_at":null},
{"id":"103","name":"Chacabuco","country_id":"9","state_id":"108","zone_id":"19","latitude":"-34.65004392620","longitude":"-60.48998763190","created_at":null,"updated_at":null},
{"id":"104","name":"Chamical","country_id":"9","state_id":"111","zone_id":"0","latitude":"-30.34958290730","longitude":"-66.31666040210","created_at":null,"updated_at":null},
{"id":"105","name":"Charata","country_id":"9","state_id":"113","zone_id":"0","latitude":"-27.21628578820","longitude":"-61.19999597330","created_at":null,"updated_at":null},
{"id":"106","name":"Chascomus","country_id":"9","state_id":"108","zone_id":"0","latitude":"-35.56621539430","longitude":"-58.01662439130","created_at":null,"updated_at":null},
{"id":"107","name":"Chepes","country_id":"9","state_id":"111","zone_id":"0","latitude":"-31.34998696010","longitude":"-66.59995060390","created_at":null,"updated_at":null},
{"id":"108","name":"Chilecito","country_id":"9","state_id":"111","zone_id":"0","latitude":"-29.16552081420","longitude":"-67.49999902510","created_at":null,"updated_at":null},
{"id":"109","name":"Chivilcoy","country_id":"9","state_id":"108","zone_id":"19","latitude":"-34.89995115280","longitude":"-60.03998925950","created_at":null,"updated_at":null},
{"id":"110","name":"Chumbicha","country_id":"9","state_id":"115","zone_id":"0","latitude":"-28.86662432990","longitude":"-66.23330631680","created_at":null,"updated_at":null},
{"id":"111","name":"Comandante Fontana","country_id":"9","state_id":"119","zone_id":"0","latitude":"-25.33329994830","longitude":"-59.68331852380","created_at":null,"updated_at":null},
{"id":"112","name":"Comodoro Rivadavia","country_id":"9","state_id":"124","zone_id":"24","latitude":"-45.87003090540","longitude":"-67.49999902510","created_at":null,"updated_at":null},
{"id":"113","name":"Comondante Luis Piedrabuena","country_id":"9","state_id":"129","zone_id":"0","latitude":"-49.97454864670","longitude":"-68.90347272830","created_at":null,"updated_at":null},
{"id":"114","name":"Coronel Suarez","country_id":"9","state_id":"108","zone_id":"19","latitude":"-37.46661619190","longitude":"-61.91661889810","created_at":null,"updated_at":null},
{"id":"115","name":"Corrientes","country_id":"9","state_id":"126","zone_id":"20","latitude":"-27.48996417360","longitude":"-58.80998681810","created_at":null,"updated_at":null},
{"id":"116","name":"Darregueira","country_id":"9","state_id":"108","zone_id":"0","latitude":"-37.69957354860","longitude":"-63.16659428060","created_at":null,"updated_at":null},
{"id":"117","name":"Doctor Pedro P. Pena","country_id":"9","state_id":"119","zone_id":"0","latitude":"-22.47998573930","longitude":"-62.29998051110","created_at":null,"updated_at":null},
{"id":"118","name":"Dolores","country_id":"9","state_id":"108","zone_id":"19","latitude":"-36.33004474000","longitude":"-57.68997766280","created_at":null,"updated_at":null},
{"id":"119","name":"El Calafate","country_id":"9","state_id":"129","zone_id":"29","latitude":"-50.33332436250","longitude":"-72.30001611500","created_at":null,"updated_at":null},
{"id":"120","name":"El Maiten","country_id":"9","state_id":"124","zone_id":"0","latitude":"-42.05000567760","longitude":"-71.16662276370","created_at":null,"updated_at":null},
{"id":"121","name":"Eldorado","country_id":"9","state_id":"118","zone_id":"0","latitude":"-26.20001707070","longitude":"-54.59998539390","created_at":null,"updated_at":null},
{"id":"122","name":"Esquel","country_id":"9","state_id":"124","zone_id":"0","latitude":"-42.90003131230","longitude":"-71.31661360850","created_at":null,"updated_at":null},
{"id":"123","name":"Formosa","country_id":"9","state_id":"119","zone_id":"20","latitude":"-26.17283526730","longitude":"-58.18281579750","created_at":null,"updated_at":null},
{"id":"124","name":"Frias","country_id":"9","state_id":"112","zone_id":"0","latitude":"-28.64958331420","longitude":"-65.14998742840","created_at":null,"updated_at":null},
{"id":"125","name":"Gastre","country_id":"9","state_id":"124","zone_id":"0","latitude":"-42.28296303430","longitude":"-69.23330407880","created_at":null,"updated_at":null},
{"id":"126","name":"General Guemes","country_id":"9","state_id":"106","zone_id":"0","latitude":"-24.66662229530","longitude":"-65.04996769370","created_at":null,"updated_at":null},
{"id":"127","name":"General Pico","country_id":"9","state_id":"116","zone_id":"21","latitude":"-35.65959470750","longitude":"-63.77001998050","created_at":null,"updated_at":null},
{"id":"128","name":"Gobernador Gregores","country_id":"9","state_id":"129","zone_id":"0","latitude":"-48.76659828830","longitude":"-70.25001204600","created_at":null,"updated_at":null},
{"id":"129","name":"Goya","country_id":"9","state_id":"126","zone_id":"20","latitude":"-29.13999265670","longitude":"-59.26998458010","created_at":null,"updated_at":null},
{"id":"130","name":"Humahuaca","country_id":"9","state_id":"128","zone_id":"0","latitude":"-23.19999347050","longitude":"-65.34994938320","created_at":null,"updated_at":null},
{"id":"131","name":"Ingeniero Guillermo N. Juarez","country_id":"9","state_id":"119","zone_id":"0","latitude":"-23.90000242230","longitude":"-61.84998213870","created_at":null,"updated_at":null},
{"id":"132","name":"Joaquin V. Gonzalez","country_id":"9","state_id":"106","zone_id":"0","latitude":"-25.08334104530","longitude":"-64.18335392420","created_at":null,"updated_at":null},
{"id":"133","name":"Juan Jose Castelli","country_id":"9","state_id":"113","zone_id":"0","latitude":"-25.94954140340","longitude":"-60.61664656740","created_at":null,"updated_at":null},
{"id":"134","name":"Juarez","country_id":"9","state_id":"108","zone_id":"0","latitude":"-37.66551877980","longitude":"-59.80002974610","created_at":null,"updated_at":null},
{"id":"135","name":"Junin","country_id":"9","state_id":"108","zone_id":"19","latitude":"-34.58456988650","longitude":"-60.95887374030","created_at":null,"updated_at":null},
{"id":"136","name":"La Paz","country_id":"9","state_id":"117","zone_id":"0","latitude":"-33.46613686240","longitude":"-67.54999597340","created_at":null,"updated_at":null},
{"id":"137","name":"La Plata","country_id":"9","state_id":"108","zone_id":"19","latitude":"-34.90961464560","longitude":"-57.95996118330","created_at":null,"updated_at":null},
{"id":"138","name":"La Rioja","country_id":"9","state_id":"111","zone_id":"25","latitude":"-29.40995033900","longitude":"-66.84996118330","created_at":null,"updated_at":null},
{"id":"139","name":"Las Heras","country_id":"9","state_id":"117","zone_id":"0","latitude":"-32.82503904340","longitude":"-68.80167667810","created_at":null,"updated_at":null},
{"id":"140","name":"Las Lomitas","country_id":"9","state_id":"119","zone_id":"0","latitude":"-24.69959185910","longitude":"-60.60000675620","created_at":null,"updated_at":null},
{"id":"141","name":"Las Plumas","country_id":"9","state_id":"124","zone_id":"0","latitude":"-43.41627887090","longitude":"-67.24998844570","created_at":null,"updated_at":null},
{"id":"142","name":"Libertador General San Martin","country_id":"9","state_id":"128","zone_id":"22","latitude":"-23.81954221720","longitude":"-64.78998356290","created_at":null,"updated_at":null},
{"id":"143","name":"Lincoln","country_id":"9","state_id":"108","zone_id":"19","latitude":"-34.88000404990","longitude":"-61.53994938320","created_at":null,"updated_at":null},
{"id":"144","name":"Lobos","country_id":"9","state_id":"108","zone_id":"0","latitude":"-35.18489500040","longitude":"-59.09467228360","created_at":null,"updated_at":null},
{"id":"145","name":"Los Blancos","country_id":"9","state_id":"106","zone_id":"0","latitude":"-23.59960732140","longitude":"-62.60003971520","created_at":null,"updated_at":null},
{"id":"146","name":"Lujan","country_id":"9","state_id":"108","zone_id":"19","latitude":"-34.57960894900","longitude":"-59.10999434570","created_at":null,"updated_at":null},
{"id":"147","name":"Malargue","country_id":"9","state_id":"117","zone_id":"0","latitude":"-35.46611814500","longitude":"-69.58330855480","created_at":null,"updated_at":null},
{"id":"148","name":"Mar de Ajo","country_id":"9","state_id":"108","zone_id":"0","latitude":"-36.71622271860","longitude":"-56.67660282550","created_at":null,"updated_at":null},
{"id":"149","name":"Mar del Plata","country_id":"9","state_id":"108","zone_id":"19","latitude":"-38.00002032600","longitude":"-57.57998437660","created_at":null,"updated_at":null},
{"id":"150","name":"Mendoza","country_id":"9","state_id":"117","zone_id":"27","latitude":"-32.88333005900","longitude":"-68.81661116710","created_at":null,"updated_at":null},
{"id":"151","name":"Mercedes","country_id":"9","state_id":"126","zone_id":"20","latitude":"-29.17957680380","longitude":"-58.07997969730","created_at":null,"updated_at":null},
{"id":"152","name":"Monte Quemado","country_id":"9","state_id":"112","zone_id":"0","latitude":"-25.79962807330","longitude":"-62.86658675300","created_at":null,"updated_at":null},
{"id":"153","name":"Necochea","country_id":"9","state_id":"108","zone_id":"19","latitude":"-38.55998614630","longitude":"-58.74999048020","created_at":null,"updated_at":null},
{"id":"154","name":"Nueve de Julio","country_id":"9","state_id":"108","zone_id":"19","latitude":"-35.44596433640","longitude":"-60.88998905600","created_at":null,"updated_at":null},
{"id":"155","name":"Olavarria","country_id":"9","state_id":"108","zone_id":"19","latitude":"-36.90003578820","longitude":"-60.32999739750","created_at":null,"updated_at":null},
{"id":"156","name":"Pampa del Infierno","country_id":"9","state_id":"113","zone_id":"0","latitude":"-26.51658689490","longitude":"-61.16658715990","created_at":null,"updated_at":null},
{"id":"157","name":"Paso Rio Mayo","country_id":"9","state_id":"124","zone_id":"0","latitude":"-45.68337563200","longitude":"-70.26657434250","created_at":null,"updated_at":null},
{"id":"158","name":"Pedro Luro","country_id":"9","state_id":"108","zone_id":"0","latitude":"-39.48334063850","longitude":"-62.68331628580","created_at":null,"updated_at":null},
{"id":"159","name":"Pergamino","country_id":"9","state_id":"108","zone_id":"19","latitude":"-33.89959877650","longitude":"-60.56998274910","created_at":null,"updated_at":null},
{"id":"160","name":"Perito Moreno","country_id":"9","state_id":"129","zone_id":"0","latitude":"-46.60001218800","longitude":"-70.93335534840","created_at":null,"updated_at":null},
{"id":"161","name":"Posadas","country_id":"9","state_id":"118","zone_id":"20","latitude":"-27.35783209790","longitude":"-55.88510734880","created_at":null,"updated_at":null},
{"id":"162","name":"Presidencia Roque Saenz Pena","country_id":"9","state_id":"113","zone_id":"20","latitude":"-26.79000689820","longitude":"-60.45001591150","created_at":null,"updated_at":null},
{"id":"163","name":"Puerto Deseado","country_id":"9","state_id":"129","zone_id":"0","latitude":"-47.75001951220","longitude":"-65.89996749030","created_at":null,"updated_at":null},
{"id":"164","name":"Puerto Madryn","country_id":"9","state_id":"124","zone_id":"24","latitude":"-42.77001340870","longitude":"-65.04001998050","created_at":null,"updated_at":null},
{"id":"165","name":"Puerto San Julian","country_id":"9","state_id":"129","zone_id":"0","latitude":"-49.30000242240","longitude":"-67.71665246750","created_at":null,"updated_at":null},
{"id":"166","name":"Punta Alta","country_id":"9","state_id":"108","zone_id":"19","latitude":"-38.87996661500","longitude":"-62.07996810060","created_at":null,"updated_at":null},
{"id":"167","name":"Rafaela","country_id":"9","state_id":"122","zone_id":"20","latitude":"-31.25004474000","longitude":"-61.49997766280","created_at":null,"updated_at":null},
{"id":"168","name":"Rawson","country_id":"9","state_id":"124","zone_id":"24","latitude":"-43.30000689830","longitude":"-65.09999048020","created_at":null,"updated_at":null},
{"id":"169","name":"Reconquista","country_id":"9","state_id":"122","zone_id":"20","latitude":"-29.13952756880","longitude":"-59.65001306320","created_at":null,"updated_at":null},
{"id":"170","name":"Resistencia","country_id":"9","state_id":"113","zone_id":"20","latitude":"-27.45999184290","longitude":"-58.99002750820","created_at":null,"updated_at":null},
{"id":"171","name":"Rinconada","country_id":"9","state_id":"128","zone_id":"0","latitude":"-22.43290850950","longitude":"-66.16659204270","created_at":null,"updated_at":null},
{"id":"172","name":"Rio Colorado","country_id":"9","state_id":"116","zone_id":"0","latitude":"-38.96657631560","longitude":"-64.08328251310","created_at":null,"updated_at":null},
{"id":"173","name":"Rio Gallegos","country_id":"9","state_id":"129","zone_id":"29","latitude":"-51.63329669320","longitude":"-69.21658675300","created_at":null,"updated_at":null},
{"id":"174","name":"Rio Grande","country_id":"9","state_id":"125","zone_id":"0","latitude":"-53.79144551690","longitude":"-67.69899520380","created_at":null,"updated_at":null},
{"id":"175","name":"Rodeo","country_id":"9","state_id":"114","zone_id":"0","latitude":"-30.21558591840","longitude":"-69.13995060390","created_at":null,"updated_at":null},
{"id":"176","name":"Rosario","country_id":"9","state_id":"122","zone_id":"20","latitude":"-32.95112953820","longitude":"-60.66630761880","created_at":null,"updated_at":null},
{"id":"177","name":"Salta","country_id":"9","state_id":"106","zone_id":"21","latitude":"-24.78335935590","longitude":"-65.41663781910","created_at":null,"updated_at":null},
{"id":"178","name":"San Antonio de los Cobres","country_id":"9","state_id":"106","zone_id":"21","latitude":"-24.18293088910","longitude":"-66.35001753910","created_at":null,"updated_at":null},
{"id":"179","name":"San Juan","country_id":"9","state_id":"114","zone_id":"26","latitude":"-31.55002642950","longitude":"-68.51998844570","created_at":null,"updated_at":null},
{"id":"180","name":"San Justo","country_id":"9","state_id":"122","zone_id":"0","latitude":"-30.78288979210","longitude":"-60.58328943040","created_at":null,"updated_at":null},
{"id":"181","name":"San Lorenzo","country_id":"9","state_id":"126","zone_id":"20","latitude":"-28.12000323610","longitude":"-58.76998925950","created_at":null,"updated_at":null},
{"id":"182","name":"San Luis","country_id":"9","state_id":"109","zone_id":"28","latitude":"-33.29999713260","longitude":"-66.35001753910","created_at":null,"updated_at":null},
{"id":"183","name":"San Martin","country_id":"9","state_id":"117","zone_id":"27","latitude":"-33.06998533250","longitude":"-68.49001611500","created_at":null,"updated_at":null},
{"id":"184","name":"San Nicolas","country_id":"9","state_id":"108","zone_id":"19","latitude":"-33.33002113980","longitude":"-60.24000289070","created_at":null,"updated_at":null},
{"id":"185","name":"San Pedro","country_id":"9","state_id":"128","zone_id":"22","latitude":"-24.21962115600","longitude":"-64.87000451830","created_at":null,"updated_at":null},
{"id":"186","name":"San Rafael","country_id":"9","state_id":"117","zone_id":"27","latitude":"-34.60002113980","longitude":"-68.33333317230","created_at":null,"updated_at":null},
{"id":"187","name":"San Ramon de la Nueva Oran","country_id":"9","state_id":"106","zone_id":"21","latitude":"-23.13999713260","longitude":"-64.32001224940","created_at":null,"updated_at":null},
{"id":"188","name":"San Salvador de Jujuy","country_id":"9","state_id":"128","zone_id":"22","latitude":"-24.18334430050","longitude":"-65.30002994960","created_at":null,"updated_at":null},
{"id":"189","name":"Santa Fe","country_id":"9","state_id":"122","zone_id":"20","latitude":"-31.62387205120","longitude":"-60.69000126310","created_at":null,"updated_at":null},
{"id":"190","name":"Santa Rosa","country_id":"9","state_id":"116","zone_id":"21","latitude":"-36.62000120160","longitude":"-64.29998763190","created_at":null,"updated_at":null},
{"id":"191","name":"Santiago del Estero","country_id":"9","state_id":"112","zone_id":"20","latitude":"-27.78333127970","longitude":"-64.26665633310","created_at":null,"updated_at":null},
{"id":"192","name":"Sarmiento","country_id":"9","state_id":"124","zone_id":"0","latitude":"-45.60002154670","longitude":"-69.08331323410","created_at":null,"updated_at":null},
{"id":"193","name":"Sunchales","country_id":"9","state_id":"122","zone_id":"0","latitude":"-30.93290647500","longitude":"-61.56661442220","created_at":null,"updated_at":null},
{"id":"194","name":"Susques","country_id":"9","state_id":"128","zone_id":"0","latitude":"-23.41667275110","longitude":"-66.48331689620","created_at":null,"updated_at":null},
{"id":"195","name":"Tandil","country_id":"9","state_id":"108","zone_id":"19","latitude":"-37.32001015350","longitude":"-59.15004358080","created_at":null,"updated_at":null},
{"id":"196","name":"Tartagal","country_id":"9","state_id":"106","zone_id":"21","latitude":"-22.55000730510","longitude":"-63.81001753910","created_at":null,"updated_at":null},
{"id":"197","name":"Telsen","country_id":"9","state_id":"124","zone_id":"0","latitude":"-42.39959674200","longitude":"-66.95000675620","created_at":null,"updated_at":null},
{"id":"198","name":"Tinogasta","country_id":"9","state_id":"115","zone_id":"0","latitude":"-28.06662148150","longitude":"-67.56658410810","created_at":null,"updated_at":null},
{"id":"199","name":"Trelew","country_id":"9","state_id":"124","zone_id":"24","latitude":"-43.25003578820","longitude":"-65.32995060390","created_at":null,"updated_at":null},
{"id":"200","name":"Tres Arroyos","country_id":"9","state_id":"108","zone_id":"19","latitude":"-38.36997190480","longitude":"-60.26994938320","created_at":null,"updated_at":null},
{"id":"201","name":"Tunuyan","country_id":"9","state_id":"117","zone_id":"0","latitude":"-33.56618243530","longitude":"-69.01667647470","created_at":null,"updated_at":null},
{"id":"202","name":"Ushuaia","country_id":"9","state_id":"125","zone_id":"30","latitude":"-54.79000323620","longitude":"-68.31000126310","created_at":null,"updated_at":null},
{"id":"203","name":"Uspallata","country_id":"9","state_id":"117","zone_id":"0","latitude":"-32.59311521530","longitude":"-69.34598453950","created_at":null,"updated_at":null},
{"id":"204","name":"Veinticinco de Mayo","country_id":"9","state_id":"108","zone_id":"19","latitude":"-35.42999631880","longitude":"-60.17998071450","created_at":null,"updated_at":null},
{"id":"205","name":"Venado Tuerto","country_id":"9","state_id":"122","zone_id":"20","latitude":"-33.74958209350","longitude":"-61.97000065270","created_at":null,"updated_at":null},
{"id":"206","name":"Vera","country_id":"9","state_id":"122","zone_id":"0","latitude":"-29.46617429730","longitude":"-60.21659346680","created_at":null,"updated_at":null},
{"id":"207","name":"Victorica","country_id":"9","state_id":"116","zone_id":"0","latitude":"-36.21625323610","longitude":"-65.45002079430","created_at":null,"updated_at":null},
{"id":"208","name":"Viedma","country_id":"9","state_id":"108","zone_id":"19","latitude":"-40.79995278040","longitude":"-63.00001530110","created_at":null,"updated_at":null},
{"id":"209","name":"Villa Angela","country_id":"9","state_id":"113","zone_id":"0","latitude":"-27.58329181030","longitude":"-60.71666630210","created_at":null,"updated_at":null},
{"id":"210","name":"Villa Constitucion","country_id":"9","state_id":"122","zone_id":"20","latitude":"-33.23002724330","longitude":"-60.35002201500","created_at":null,"updated_at":null},
{"id":"211","name":"Villalonga","country_id":"9","state_id":"108","zone_id":"0","latitude":"-39.88285113650","longitude":"-62.58332238940","created_at":null,"updated_at":null},
{"id":"212","name":"Yacuiba","country_id":"9","state_id":"106","zone_id":"61","latitude":"-22.03003904340","longitude":"-63.69999841480","created_at":null,"updated_at":null},
{"id":"213","name":"Zarate","country_id":"9","state_id":"108","zone_id":"19","latitude":"-34.08956134160","longitude":"-59.04002445640","created_at":null,"updated_at":null},
{"id":"214","name":"Artashat","country_id":"10","state_id":"131","zone_id":"7","latitude":"39.95388890000","longitude":"44.55055560000","created_at":null,"updated_at":null},
{"id":"215","name":"Ashtarak","country_id":"10","state_id":"130","zone_id":"7","latitude":"40.30166670000","longitude":"44.35916670000","created_at":null,"updated_at":null},
{"id":"216","name":"Gavarr","country_id":"10","state_id":"134","zone_id":"7","latitude":"40.35888890000","longitude":"45.12666670000","created_at":null,"updated_at":null},
{"id":"217","name":"Gyumri","country_id":"10","state_id":"137","zone_id":"7","latitude":"40.78943402000","longitude":"43.84749385460","created_at":null,"updated_at":null},
{"id":"218","name":"Ijevan","country_id":"10","state_id":"139","zone_id":"7","latitude":"40.87555560000","longitude":"45.14916670000","created_at":null,"updated_at":null},
{"id":"219","name":"Vanadzor","country_id":"10","state_id":"136","zone_id":"7","latitude":"40.81276592920","longitude":"44.48828161500","created_at":null,"updated_at":null},
{"id":"220","name":"Yeghegnadzor","country_id":"10","state_id":"140","zone_id":"7","latitude":"39.76111110000","longitude":"45.33333330000","created_at":null,"updated_at":null},
{"id":"221","name":"Yerevan","country_id":"10","state_id":"133","zone_id":"7","latitude":"40.18115073550","longitude":"44.51355139040","created_at":null,"updated_at":null},
{"id":"222","name":"Adelaide","country_id":"15","state_id":"164","zone_id":"42","latitude":"-34.93498777390","longitude":"138.60000484100","created_at":null,"updated_at":null},
{"id":"223","name":"Adelaide River","country_id":"15","state_id":"162","zone_id":"0","latitude":"-13.24954140340","longitude":"131.09999751700","created_at":null,"updated_at":null},
{"id":"224","name":"Albany","country_id":"15","state_id":"167","zone_id":"44","latitude":"-35.01694659550","longitude":"117.89160477600","created_at":null,"updated_at":null},
{"id":"225","name":"Albury","country_id":"15","state_id":"161","zone_id":"38","latitude":"-36.06003538130","longitude":"146.92001379300","created_at":null,"updated_at":null},
{"id":"226","name":"Alice Springs","country_id":"15","state_id":"162","zone_id":"43","latitude":"-23.70099648150","longitude":"133.88003454500","created_at":null,"updated_at":null},
{"id":"227","name":"Andamooka","country_id":"15","state_id":"164","zone_id":"0","latitude":"-30.43097328820","longitude":"137.16557043400","created_at":null,"updated_at":null},
{"id":"228","name":"Ararat","country_id":"15","state_id":"166","zone_id":"37","latitude":"-37.27954750700","longitude":"142.90997432400","created_at":null,"updated_at":null},
{"id":"229","name":"Armidale","country_id":"15","state_id":"161","zone_id":"38","latitude":"-30.51231199260","longitude":"151.66747595100","created_at":null,"updated_at":null},
{"id":"230","name":"Atherton","country_id":"15","state_id":"163","zone_id":"40","latitude":"-17.27027789430","longitude":"145.46935298600","created_at":null,"updated_at":null},
{"id":"231","name":"Ayr","country_id":"15","state_id":"163","zone_id":"40","latitude":"-19.57024086630","longitude":"147.39946773200","created_at":null,"updated_at":null},
{"id":"232","name":"Bairnsdale","country_id":"15","state_id":"166","zone_id":"37","latitude":"-37.82959145230","longitude":"147.60999751700","created_at":null,"updated_at":null},
{"id":"233","name":"Ballarat","country_id":"15","state_id":"166","zone_id":"37","latitude":"-37.55958209360","longitude":"143.84004675200","created_at":null,"updated_at":null},
{"id":"234","name":"Ballina","country_id":"15","state_id":"161","zone_id":"38","latitude":"-28.86135333380","longitude":"153.56798010200","created_at":null,"updated_at":null},
{"id":"235","name":"Barcaldine","country_id":"15","state_id":"163","zone_id":"0","latitude":"-23.56617266970","longitude":"145.28336950600","created_at":null,"updated_at":null},
{"id":"236","name":"Batemans Bay","country_id":"15","state_id":"161","zone_id":"38","latitude":"-35.68961871460","longitude":"150.20730668100","created_at":null,"updated_at":null},
{"id":"237","name":"Bathurst","country_id":"15","state_id":"161","zone_id":"0","latitude":"-33.41962807340","longitude":"149.57003291700","created_at":null,"updated_at":null},
{"id":"238","name":"Bedourie","country_id":"15","state_id":"163","zone_id":"0","latitude":"-24.34958738320","longitude":"139.46661861100","created_at":null,"updated_at":null},
{"id":"239","name":"Bendigo","country_id":"15","state_id":"166","zone_id":"37","latitude":"-36.75999265670","longitude":"144.28001989700","created_at":null,"updated_at":null},
{"id":"240","name":"Berri","country_id":"15","state_id":"164","zone_id":"42","latitude":"-34.28293455120","longitude":"140.60003780000","created_at":null,"updated_at":null},
{"id":"241","name":"Bicheno","country_id":"15","state_id":"165","zone_id":"0","latitude":"-41.87838824590","longitude":"148.28861242600","created_at":null,"updated_at":null},
{"id":"242","name":"Biloela","country_id":"15","state_id":"163","zone_id":"40","latitude":"-24.39356402710","longitude":"150.49607458400","created_at":null,"updated_at":null},
{"id":"243","name":"Birdsville","country_id":"15","state_id":"163","zone_id":"0","latitude":"-25.89962196980","longitude":"139.36662471400","created_at":null,"updated_at":null},
{"id":"244","name":"Bongaree","country_id":"15","state_id":"163","zone_id":"40","latitude":"-27.07872312540","longitude":"153.15089961700","created_at":null,"updated_at":null},
{"id":"245","name":"Bordertown","country_id":"15","state_id":"164","zone_id":"42","latitude":"-36.31619545620","longitude":"140.76664261800","created_at":null,"updated_at":null},
{"id":"246","name":"Boulia","country_id":"15","state_id":"163","zone_id":"0","latitude":"-22.89959836950","longitude":"139.90002884800","created_at":null,"updated_at":null},
{"id":"247","name":"Bourke","country_id":"15","state_id":"161","zone_id":"38","latitude":"-30.10000000000","longitude":"145.93333330000","created_at":null,"updated_at":null},
{"id":"248","name":"Bowen","country_id":"15","state_id":"163","zone_id":"40","latitude":"-20.00132566450","longitude":"148.20866898500","created_at":null,"updated_at":null},
{"id":"249","name":"Brisbane","country_id":"15","state_id":"163","zone_id":"40","latitude":"-27.45503090540","longitude":"153.03509273200","created_at":null,"updated_at":null},
{"id":"250","name":"Broken Hill","country_id":"15","state_id":"161","zone_id":"39","latitude":"-31.94995033900","longitude":"141.43311356500","created_at":null,"updated_at":null},
{"id":"251","name":"Broome","country_id":"15","state_id":"167","zone_id":"44","latitude":"-17.96177069350","longitude":"122.23076810300","created_at":null,"updated_at":null},
{"id":"252","name":"Bunbury","country_id":"15","state_id":"167","zone_id":"44","latitude":"-33.34428383510","longitude":"115.65024287800","created_at":null,"updated_at":null},
{"id":"253","name":"Bundaberg","country_id":"15","state_id":"163","zone_id":"40","latitude":"-24.87906410850","longitude":"152.35089676800","created_at":null,"updated_at":null},
{"id":"254","name":"Burketown","country_id":"15","state_id":"163","zone_id":"0","latitude":"-17.71609047560","longitude":"139.56661250700","created_at":null,"updated_at":null},
{"id":"255","name":"Burnie","country_id":"15","state_id":"165","zone_id":"35","latitude":"-41.06660317100","longitude":"145.91666418400","created_at":null,"updated_at":null},
{"id":"256","name":"Busselton","country_id":"15","state_id":"167","zone_id":"44","latitude":"-33.65640948610","longitude":"115.34865921900","created_at":null,"updated_at":null},
{"id":"257","name":"Byron Bay","country_id":"15","state_id":"161","zone_id":"38","latitude":"-28.65650795620","longitude":"153.61288692100","created_at":null,"updated_at":null},
{"id":"258","name":"Caboolture","country_id":"15","state_id":"163","zone_id":"40","latitude":"-27.08296059290","longitude":"152.94998164800","created_at":null,"updated_at":null},
{"id":"259","name":"Cairns","country_id":"15","state_id":"163","zone_id":"40","latitude":"-16.88783985860","longitude":"145.76333094600","created_at":null,"updated_at":null},
{"id":"260","name":"Caloundra","country_id":"15","state_id":"163","zone_id":"40","latitude":"-26.80003212610","longitude":"153.13332963000","created_at":null,"updated_at":null},
{"id":"261","name":"Camooweal","country_id":"15","state_id":"163","zone_id":"0","latitude":"-19.91673134480","longitude":"138.11667517000","created_at":null,"updated_at":null},
{"id":"262","name":"Carnarvon","country_id":"15","state_id":"167","zone_id":"44","latitude":"-24.89983803430","longitude":"113.65010656600","created_at":null,"updated_at":null},
{"id":"263","name":"Ceduna","country_id":"15","state_id":"164","zone_id":"42","latitude":"-32.09913463810","longitude":"133.66226738900","created_at":null,"updated_at":null},
{"id":"264","name":"Central Coast","country_id":"15","state_id":"161","zone_id":"0","latitude":"-33.42004148480","longitude":"151.30000484100","created_at":null,"updated_at":null},
{"id":"265","name":"Charleville","country_id":"15","state_id":"163","zone_id":"0","latitude":"-26.40000486370","longitude":"146.25002884800","created_at":null,"updated_at":null},
{"id":"266","name":"Charters Towers","country_id":"15","state_id":"163","zone_id":"40","latitude":"-20.08090737020","longitude":"146.25871048900","created_at":null,"updated_at":null},
{"id":"267","name":"Clare","country_id":"15","state_id":"164","zone_id":"42","latitude":"-33.83288450240","longitude":"138.60000484100","created_at":null,"updated_at":null},
{"id":"268","name":"Cloncurry","country_id":"15","state_id":"163","zone_id":"0","latitude":"-20.69999102900","longitude":"140.49999222700","created_at":null,"updated_at":null},
{"id":"269","name":"Cobram","country_id":"15","state_id":"166","zone_id":"0","latitude":"-35.91963051480","longitude":"145.65001379300","created_at":null,"updated_at":null},
{"id":"270","name":"Coffs Harbour","country_id":"15","state_id":"161","zone_id":"40","latitude":"-30.30705320360","longitude":"153.11229732200","created_at":null,"updated_at":null},
{"id":"271","name":"Colac","country_id":"15","state_id":"166","zone_id":"37","latitude":"-38.33953448610","longitude":"143.58001094500","created_at":null,"updated_at":null},
{"id":"272","name":"Cooma","country_id":"15","state_id":"161","zone_id":"38","latitude":"-36.23955930710","longitude":"149.12003454500","created_at":null,"updated_at":null},
{"id":"273","name":"Cowell","country_id":"15","state_id":"164","zone_id":"0","latitude":"-33.68286781950","longitude":"136.91664505900","created_at":null,"updated_at":null},
{"id":"274","name":"Cowra","country_id":"15","state_id":"161","zone_id":"38","latitude":"-33.82962888720","longitude":"148.68000972400","created_at":null,"updated_at":null},
{"id":"275","name":"Cranbourne","country_id":"15","state_id":"166","zone_id":"37","latitude":"-38.09960081100","longitude":"145.28336950600","created_at":null,"updated_at":null},
{"id":"276","name":"Dalby","country_id":"15","state_id":"163","zone_id":"40","latitude":"-27.19385821660","longitude":"151.26574336700","created_at":null,"updated_at":null},
{"id":"277","name":"Darwin","country_id":"15","state_id":"162","zone_id":"43","latitude":"-12.42535398470","longitude":"130.85003861400","created_at":null,"updated_at":null},
{"id":"278","name":"Deniliquin","country_id":"15","state_id":"161","zone_id":"38","latitude":"-35.52957680380","longitude":"144.95000484100","created_at":null,"updated_at":null},
{"id":"279","name":"Derby","country_id":"15","state_id":"167","zone_id":"44","latitude":"-17.29999184280","longitude":"123.96663448000","created_at":null,"updated_at":null},
{"id":"280","name":"Devonport","country_id":"15","state_id":"165","zone_id":"35","latitude":"-41.19266756540","longitude":"146.33110174400","created_at":null,"updated_at":null},
{"id":"281","name":"Dubbo","country_id":"15","state_id":"161","zone_id":"38","latitude":"-32.25995725630","longitude":"148.59732743200","created_at":null,"updated_at":null},
{"id":"282","name":"Echuca","country_id":"15","state_id":"161","zone_id":"38","latitude":"-36.12959185920","longitude":"144.75001704800","created_at":null,"updated_at":null},
{"id":"283","name":"Eidsvold","country_id":"15","state_id":"163","zone_id":"0","latitude":"-25.36621783570","longitude":"151.13334834700","created_at":null,"updated_at":null},
{"id":"284","name":"Emerald","country_id":"15","state_id":"163","zone_id":"40","latitude":"-23.51222247440","longitude":"148.16732783900","created_at":null,"updated_at":null},
{"id":"285","name":"Erldunda","country_id":"15","state_id":"162","zone_id":"0","latitude":"-25.23330605180","longitude":"133.19997269600","created_at":null,"updated_at":null},
{"id":"286","name":"Esperance","country_id":"15","state_id":"167","zone_id":"44","latitude":"-33.85730700000","longitude":"121.88889725500","created_at":null,"updated_at":null},
{"id":"287","name":"Exmouth","country_id":"15","state_id":"167","zone_id":"0","latitude":"-21.93109986740","longitude":"114.12334693500","created_at":null,"updated_at":null},
{"id":"288","name":"Forbes","country_id":"15","state_id":"161","zone_id":"38","latitude":"-33.38960406620","longitude":"148.01999833100","created_at":null,"updated_at":null},
{"id":"289","name":"Forster-Tuncurry","country_id":"15","state_id":"161","zone_id":"38","latitude":"-32.19313962930","longitude":"152.52664831500","created_at":null,"updated_at":null},
{"id":"290","name":"Gawler","country_id":"15","state_id":"164","zone_id":"42","latitude":"-34.60735919320","longitude":"138.72635371800","created_at":null,"updated_at":null},
{"id":"291","name":"Geelong","country_id":"15","state_id":"166","zone_id":"37","latitude":"-38.16749504710","longitude":"144.39563350500","created_at":null,"updated_at":null},
{"id":"292","name":"Georgetown","country_id":"15","state_id":"163","zone_id":"0","latitude":"-18.30003416050","longitude":"143.53329545000","created_at":null,"updated_at":null},
{"id":"293","name":"Geraldton","country_id":"15","state_id":"167","zone_id":"44","latitude":"-28.76663043340","longitude":"114.59997106800","created_at":null,"updated_at":null},
{"id":"294","name":"Gingin","country_id":"15","state_id":"167","zone_id":"0","latitude":"-31.34957354860","longitude":"115.90004675200","created_at":null,"updated_at":null},
{"id":"295","name":"Gladstone","country_id":"15","state_id":"163","zone_id":"40","latitude":"-23.85333860390","longitude":"151.24672644000","created_at":null,"updated_at":null},
{"id":"296","name":"Gold Coast","country_id":"15","state_id":"163","zone_id":"40","latitude":"-28.08150429400","longitude":"153.44824580800","created_at":null,"updated_at":null},
{"id":"297","name":"Goondiwindi","country_id":"15","state_id":"161","zone_id":"0","latitude":"-28.55480873740","longitude":"150.32528397500","created_at":null,"updated_at":null},
{"id":"298","name":"Goulburn","country_id":"15","state_id":"161","zone_id":"38","latitude":"-34.74957273480","longitude":"149.71017940200","created_at":null,"updated_at":null},
{"id":"299","name":"Grafton","country_id":"15","state_id":"161","zone_id":"38","latitude":"-29.71199908570","longitude":"152.93768265700","created_at":null,"updated_at":null},
{"id":"300","name":"Griffith","country_id":"15","state_id":"161","zone_id":"38","latitude":"-34.29001422250","longitude":"146.04001582800","created_at":null,"updated_at":null},
{"id":"301","name":"Gunnedah","country_id":"15","state_id":"161","zone_id":"38","latitude":"-30.98701169970","longitude":"150.26229040400","created_at":null,"updated_at":null},
{"id":"302","name":"Gympie","country_id":"15","state_id":"163","zone_id":"40","latitude":"-26.18859657920","longitude":"152.67092891400","created_at":null,"updated_at":null},
{"id":"303","name":"Halls Creek","country_id":"15","state_id":"167","zone_id":"44","latitude":"-18.26670286170","longitude":"127.76671260500","created_at":null,"updated_at":null},
{"id":"304","name":"Hamilton","country_id":"15","state_id":"166","zone_id":"37","latitude":"-37.73119952520","longitude":"142.02341345100","created_at":null,"updated_at":null},
{"id":"305","name":"Hervey Bay","country_id":"15","state_id":"163","zone_id":"0","latitude":"-25.28870318730","longitude":"152.84094437600","created_at":null,"updated_at":null},
{"id":"306","name":"Hobart","country_id":"15","state_id":"165","zone_id":"35","latitude":"-42.85000852590","longitude":"147.29502966200","created_at":null,"updated_at":null},
{"id":"307","name":"Horsham","country_id":"15","state_id":"166","zone_id":"37","latitude":"-36.70960813520","longitude":"142.19001826900","created_at":null,"updated_at":null},
{"id":"308","name":"Hughenden","country_id":"15","state_id":"163","zone_id":"0","latitude":"-20.85000771200","longitude":"144.20002477900","created_at":null,"updated_at":null},
{"id":"309","name":"Ingham","country_id":"15","state_id":"163","zone_id":"40","latitude":"-18.64957354860","longitude":"146.16662308700","created_at":null,"updated_at":null},
{"id":"310","name":"Innisfail","country_id":"15","state_id":"163","zone_id":"40","latitude":"-17.53134723020","longitude":"146.03867224000","created_at":null,"updated_at":null},
{"id":"311","name":"Inverell","country_id":"15","state_id":"161","zone_id":"38","latitude":"-29.76677610390","longitude":"151.11257442100","created_at":null,"updated_at":null},
{"id":"312","name":"Ivanhoe","country_id":"15","state_id":"161","zone_id":"0","latitude":"-32.89960813520","longitude":"144.30001867600","created_at":null,"updated_at":null},
{"id":"313","name":"Kalbarri","country_id":"15","state_id":"167","zone_id":"44","latitude":"-27.66618080770","longitude":"114.16666418400","created_at":null,"updated_at":null},
{"id":"314","name":"Kalgoorlie","country_id":"15","state_id":"167","zone_id":"44","latitude":"-30.73539915080","longitude":"121.46001745500","created_at":null,"updated_at":null},
{"id":"315","name":"Kaltukatjara","country_id":"15","state_id":"162","zone_id":"0","latitude":"-25.78841428750","longitude":"128.99733516300","created_at":null,"updated_at":null},
{"id":"316","name":"Karratha","country_id":"15","state_id":"167","zone_id":"44","latitude":"-20.73037677120","longitude":"116.87001338600","created_at":null,"updated_at":null},
{"id":"317","name":"Karumba","country_id":"15","state_id":"163","zone_id":"0","latitude":"-17.48333982460","longitude":"140.83340856800","created_at":null,"updated_at":null},
{"id":"318","name":"Katanning","country_id":"15","state_id":"167","zone_id":"44","latitude":"-33.69955930710","longitude":"117.55007523500","created_at":null,"updated_at":null},
{"id":"319","name":"Katherine","country_id":"15","state_id":"162","zone_id":"43","latitude":"-14.46662473670","longitude":"132.26659297600","created_at":null,"updated_at":null},
{"id":"320","name":"Katoomba","country_id":"15","state_id":"161","zone_id":"38","latitude":"-33.70694903690","longitude":"150.32001297900","created_at":null,"updated_at":null},
{"id":"321","name":"Kempsey","country_id":"15","state_id":"161","zone_id":"38","latitude":"-31.08736733120","longitude":"152.82203080200","created_at":null,"updated_at":null},
{"id":"322","name":"Kiama","country_id":"15","state_id":"161","zone_id":"38","latitude":"-34.70957517620","longitude":"150.84003291700","created_at":null,"updated_at":null},
{"id":"323","name":"Kimba","country_id":"15","state_id":"164","zone_id":"0","latitude":"-33.14961871460","longitude":"136.43336706500","created_at":null,"updated_at":null},
{"id":"324","name":"Kingaroy","country_id":"15","state_id":"163","zone_id":"40","latitude":"-26.53896279010","longitude":"151.84059200000","created_at":null,"updated_at":null},
{"id":"325","name":"Kingoonya","country_id":"15","state_id":"164","zone_id":"0","latitude":"-30.89957517620","longitude":"135.29999955200","created_at":null,"updated_at":null},
{"id":"326","name":"Kingston","country_id":"15","state_id":"165","zone_id":"35","latitude":"-42.99113686250","longitude":"147.30841385800","created_at":null,"updated_at":null},
{"id":"327","name":"Kingston South East","country_id":"15","state_id":"164","zone_id":"0","latitude":"-36.83280474980","longitude":"139.85005773800","created_at":null,"updated_at":null},
{"id":"328","name":"Kununurra","country_id":"15","state_id":"167","zone_id":"44","latitude":"-15.76659706740","longitude":"128.73332027100","created_at":null,"updated_at":null},
{"id":"329","name":"Kwinana","country_id":"15","state_id":"167","zone_id":"44","latitude":"-32.23939003620","longitude":"115.77023555400","created_at":null,"updated_at":null},
{"id":"330","name":"Launceston","country_id":"15","state_id":"165","zone_id":"35","latitude":"-41.44983559290","longitude":"147.13018184300","created_at":null,"updated_at":null},
{"id":"331","name":"Laverton","country_id":"15","state_id":"167","zone_id":"0","latitude":"-28.62700071330","longitude":"122.40404252000","created_at":null,"updated_at":null},
{"id":"332","name":"Leeton","country_id":"15","state_id":"161","zone_id":"38","latitude":"-34.54493406290","longitude":"146.39730668000","created_at":null,"updated_at":null},
{"id":"333","name":"Leonara","country_id":"15","state_id":"167","zone_id":"0","latitude":"-28.88150714240","longitude":"121.32803584700","created_at":null,"updated_at":null},
{"id":"334","name":"Lismore","country_id":"15","state_id":"161","zone_id":"38","latitude":"-28.81665321980","longitude":"153.29311315800","created_at":null,"updated_at":null},
{"id":"335","name":"Lithgow","country_id":"15","state_id":"161","zone_id":"38","latitude":"-33.49610919320","longitude":"150.15278804400","created_at":null,"updated_at":null},
{"id":"336","name":"Longreach","country_id":"15","state_id":"163","zone_id":"0","latitude":"-23.44959063840","longitude":"144.25004756600","created_at":null,"updated_at":null},
{"id":"337","name":"Mackay","country_id":"15","state_id":"163","zone_id":"40","latitude":"-21.14389158240","longitude":"149.15000687600","created_at":null,"updated_at":null},
{"id":"338","name":"Maitland","country_id":"15","state_id":"161","zone_id":"38","latitude":"-32.72096270880","longitude":"151.55502803500","created_at":null,"updated_at":null},
{"id":"339","name":"Mandurah","country_id":"15","state_id":"167","zone_id":"44","latitude":"-32.52348259040","longitude":"115.74705666600","created_at":null,"updated_at":null},
{"id":"340","name":"Manjimup","country_id":"15","state_id":"167","zone_id":"44","latitude":"-34.23332517620","longitude":"116.15000565500","created_at":null,"updated_at":null},
{"id":"341","name":"Maryborough","country_id":"15","state_id":"163","zone_id":"40","latitude":"-25.54910072960","longitude":"152.72090002400","created_at":null,"updated_at":null},
{"id":"342","name":"McMinns Lagoon","country_id":"15","state_id":"162","zone_id":"43","latitude":"-12.53289264030","longitude":"131.05002640700","created_at":null,"updated_at":null},
{"id":"343","name":"Meekatharra","country_id":"15","state_id":"167","zone_id":"0","latitude":"-26.59999265670","longitude":"118.48329992600","created_at":null,"updated_at":null},
{"id":"344","name":"Melbourne","country_id":"15","state_id":"166","zone_id":"0","latitude":"-37.82003131230","longitude":"144.97501623500","created_at":null,"updated_at":null},
{"id":"345","name":"Melton","country_id":"15","state_id":"166","zone_id":"37","latitude":"-37.68954832080","longitude":"144.57002803500","created_at":null,"updated_at":null},
{"id":"346","name":"Meningie","country_id":"15","state_id":"164","zone_id":"42","latitude":"-35.69954058960","longitude":"139.33334509200","created_at":null,"updated_at":null},
{"id":"347","name":"Merimbula","country_id":"15","state_id":"161","zone_id":"38","latitude":"-36.89962237680","longitude":"149.90003861400","created_at":null,"updated_at":null},
{"id":"348","name":"Merredin","country_id":"15","state_id":"167","zone_id":"44","latitude":"-31.48284706750","longitude":"118.26667232200","created_at":null,"updated_at":null},
{"id":"349","name":"Mildura","country_id":"15","state_id":"166","zone_id":"37","latitude":"-34.18500771200","longitude":"142.15136429800","created_at":null,"updated_at":null},
{"id":"350","name":"Moranbah","country_id":"15","state_id":"163","zone_id":"40","latitude":"-22.00156532920","longitude":"148.03803340600","created_at":null,"updated_at":null},
{"id":"351","name":"Morawa","country_id":"15","state_id":"167","zone_id":"0","latitude":"-29.21626707070","longitude":"116.00004064800","created_at":null,"updated_at":null},
{"id":"352","name":"Moree","country_id":"15","state_id":"161","zone_id":"38","latitude":"-29.46989500040","longitude":"149.83006872500","created_at":null,"updated_at":null},
{"id":"353","name":"Mount Barker","country_id":"15","state_id":"167","zone_id":"44","latitude":"-34.63278399780","longitude":"117.66660559000","created_at":null,"updated_at":null},
{"id":"354","name":"Mount Gambier","country_id":"15","state_id":"164","zone_id":"42","latitude":"-37.83134845100","longitude":"140.76504064900","created_at":null,"updated_at":null},
{"id":"355","name":"Mount Isa","country_id":"15","state_id":"163","zone_id":"40","latitude":"-20.72386554080","longitude":"139.49002803500","created_at":null,"updated_at":null},
{"id":"356","name":"Mount Magnet","country_id":"15","state_id":"167","zone_id":"0","latitude":"-28.06620807010","longitude":"117.81667394900","created_at":null,"updated_at":null},
{"id":"357","name":"Mudgee","country_id":"15","state_id":"161","zone_id":"0","latitude":"-32.58960121790","longitude":"149.58010982200","created_at":null,"updated_at":null},
{"id":"358","name":"Murray Bridge","country_id":"15","state_id":"164","zone_id":"42","latitude":"-35.12960121790","longitude":"139.26001623400","created_at":null,"updated_at":null},
{"id":"359","name":"Muswellbrook","country_id":"15","state_id":"161","zone_id":"38","latitude":"-32.26956907270","longitude":"150.89000402800","created_at":null,"updated_at":null},
{"id":"360","name":"Narrabri","country_id":"15","state_id":"161","zone_id":"38","latitude":"-30.33190956750","longitude":"149.78743566800","created_at":null,"updated_at":null},
{"id":"361","name":"Narrogin","country_id":"15","state_id":"167","zone_id":"44","latitude":"-32.93288775760","longitude":"117.16663610700","created_at":null,"updated_at":null},
{"id":"362","name":"Newcastle","country_id":"15","state_id":"161","zone_id":"38","latitude":"-32.84534788130","longitude":"151.81501216600","created_at":null,"updated_at":null},
{"id":"363","name":"Newcastle Waters","country_id":"15","state_id":"162","zone_id":"0","latitude":"-17.55279294960","longitude":"133.46724320400","created_at":null,"updated_at":null},
{"id":"364","name":"Newman","country_id":"15","state_id":"167","zone_id":"44","latitude":"-23.36659828820","longitude":"119.73330114700","created_at":null,"updated_at":null},
{"id":"365","name":"Norseman","country_id":"15","state_id":"167","zone_id":"0","latitude":"-32.20001259480","longitude":"121.76661372800","created_at":null,"updated_at":null},
{"id":"366","name":"Northam","country_id":"15","state_id":"167","zone_id":"44","latitude":"-31.65658323290","longitude":"116.65338578200","created_at":null,"updated_at":null},
{"id":"367","name":"Nowra","country_id":"15","state_id":"161","zone_id":"38","latitude":"-34.88284625370","longitude":"150.60004756600","created_at":null,"updated_at":null},
{"id":"368","name":"Oatlands","country_id":"15","state_id":"165","zone_id":"0","latitude":"-42.29960284550","longitude":"147.36660152100","created_at":null,"updated_at":null},
{"id":"369","name":"Onslow","country_id":"15","state_id":"167","zone_id":"0","latitude":"-21.65759353580","longitude":"115.09629590800","created_at":null,"updated_at":null},
{"id":"370","name":"Orange","country_id":"15","state_id":"161","zone_id":"38","latitude":"-33.27999835330","longitude":"149.09998408900","created_at":null,"updated_at":null},
{"id":"371","name":"Ouyen","country_id":"15","state_id":"166","zone_id":"37","latitude":"-35.06619423550","longitude":"142.31667720500","created_at":null,"updated_at":null},
{"id":"372","name":"Pannawonica","country_id":"15","state_id":"167","zone_id":"0","latitude":"-21.63657468790","longitude":"116.32503373100","created_at":null,"updated_at":null},
{"id":"373","name":"Parkes","country_id":"15","state_id":"161","zone_id":"38","latitude":"-33.12956825890","longitude":"148.17001501400","created_at":null,"updated_at":null},
{"id":"374","name":"Penola","country_id":"15","state_id":"164","zone_id":"42","latitude":"-37.38295204800","longitude":"140.81666540400","created_at":null,"updated_at":null},
{"id":"375","name":"Perth","country_id":"15","state_id":"167","zone_id":"44","latitude":"-31.95501462930","longitude":"115.83999873800","created_at":null,"updated_at":null},
{"id":"376","name":"Peterborough","country_id":"15","state_id":"164","zone_id":"42","latitude":"-32.96616738000","longitude":"138.83332393300","created_at":null,"updated_at":null},
{"id":"377","name":"Pine Creek","country_id":"15","state_id":"162","zone_id":"0","latitude":"-13.81617348340","longitude":"131.81669795600","created_at":null,"updated_at":null},
{"id":"378","name":"Port Augusta","country_id":"15","state_id":"164","zone_id":"42","latitude":"-32.49002073290","longitude":"137.77002966200","created_at":null,"updated_at":null},
{"id":"379","name":"Port Denison","country_id":"15","state_id":"167","zone_id":"44","latitude":"-29.28282631550","longitude":"114.91664424500","created_at":null,"updated_at":null},
{"id":"380","name":"Port Douglas","country_id":"15","state_id":"163","zone_id":"41","latitude":"-16.48458812220","longitude":"145.45872185000","created_at":null,"updated_at":null},
{"id":"381","name":"Port Hedland","country_id":"15","state_id":"167","zone_id":"44","latitude":"-20.31040240600","longitude":"118.60603145300","created_at":null,"updated_at":null},
{"id":"382","name":"Port Lincoln","country_id":"15","state_id":"164","zone_id":"42","latitude":"-34.73324298220","longitude":"135.86657995500","created_at":null,"updated_at":null},
{"id":"383","name":"Port Macquarie","country_id":"15","state_id":"161","zone_id":"38","latitude":"-31.44501991910","longitude":"152.91866573000","created_at":null,"updated_at":null},
{"id":"384","name":"Port Pirie","country_id":"15","state_id":"164","zone_id":"42","latitude":"-33.19106321330","longitude":"137.99001623400","created_at":null,"updated_at":null},
{"id":"385","name":"Portland","country_id":"15","state_id":"166","zone_id":"37","latitude":"-38.33999957400","longitude":"141.59000321400","created_at":null,"updated_at":null},
{"id":"386","name":"Proserpine","country_id":"15","state_id":"163","zone_id":"0","latitude":"-20.41623573930","longitude":"148.58347814900","created_at":null,"updated_at":null},
{"id":"387","name":"Queenstown","country_id":"15","state_id":"165","zone_id":"35","latitude":"-42.08292356490","longitude":"145.55001989700","created_at":null,"updated_at":null},
{"id":"388","name":"Quilpie","country_id":"15","state_id":"163","zone_id":"0","latitude":"-26.61663246790","longitude":"144.25004756600","created_at":null,"updated_at":null},
{"id":"389","name":"Ravensthorpe","country_id":"15","state_id":"167","zone_id":"44","latitude":"-33.58287392300","longitude":"120.03333451200","created_at":null,"updated_at":null},
{"id":"390","name":"Richmond","country_id":"15","state_id":"163","zone_id":"0","latitude":"-20.71626910520","longitude":"143.13331986400","created_at":null,"updated_at":null},
{"id":"391","name":"Rockhampton","country_id":"15","state_id":"163","zone_id":"40","latitude":"-23.36391111370","longitude":"150.52000077200","created_at":null,"updated_at":null},
{"id":"392","name":"Roebourne","country_id":"15","state_id":"167","zone_id":"44","latitude":"-20.78293170290","longitude":"117.13330480900","created_at":null,"updated_at":null},
{"id":"393","name":"Roma","country_id":"15","state_id":"163","zone_id":"40","latitude":"-26.55937498090","longitude":"148.79070064200","created_at":null,"updated_at":null},
{"id":"394","name":"Sale","country_id":"15","state_id":"166","zone_id":"37","latitude":"-38.10957436240","longitude":"147.06000524800","created_at":null,"updated_at":null},
{"id":"395","name":"Scone","country_id":"15","state_id":"161","zone_id":"0","latitude":"-32.07960650760","longitude":"150.85010982200","created_at":null,"updated_at":null},
{"id":"396","name":"Scottsdale","country_id":"15","state_id":"165","zone_id":"35","latitude":"-41.14949216840","longitude":"147.51666988000","created_at":null,"updated_at":null},
{"id":"397","name":"Seymour","country_id":"15","state_id":"166","zone_id":"0","latitude":"-37.03423948290","longitude":"145.12730668000","created_at":null,"updated_at":null},
{"id":"398","name":"Shepparton","country_id":"15","state_id":"166","zone_id":"37","latitude":"-36.37458982470","longitude":"145.39137324900","created_at":null,"updated_at":null},
{"id":"399","name":"Singleton","country_id":"15","state_id":"161","zone_id":"38","latitude":"-32.56949908570","longitude":"151.16001338600","created_at":null,"updated_at":null},
{"id":"400","name":"Smithton","country_id":"15","state_id":"165","zone_id":"35","latitude":"-40.83292234420","longitude":"145.11666133500","created_at":null,"updated_at":null},
{"id":"401","name":"Southern Cross","country_id":"15","state_id":"167","zone_id":"0","latitude":"-31.21614500040","longitude":"119.31668574900","created_at":null,"updated_at":null},
{"id":"402","name":"Stawell","country_id":"15","state_id":"166","zone_id":"37","latitude":"-37.05961261110","longitude":"142.76000931700","created_at":null,"updated_at":null},
{"id":"403","name":"Streaky Bay","country_id":"15","state_id":"164","zone_id":"42","latitude":"-32.81187175580","longitude":"134.21492964700","created_at":null,"updated_at":null},
{"id":"404","name":"Sunbury","country_id":"15","state_id":"166","zone_id":"37","latitude":"-37.56960732140","longitude":"144.71001949000","created_at":null,"updated_at":null},
{"id":"405","name":"Sunshine Coast","country_id":"15","state_id":"163","zone_id":"0","latitude":"-26.67998777390","longitude":"153.05002722100","created_at":null,"updated_at":null},
{"id":"406","name":"Swan Hill","country_id":"15","state_id":"166","zone_id":"37","latitude":"-35.33961423870","longitude":"143.54001338600","created_at":null,"updated_at":null},
{"id":"407","name":"Sydney","country_id":"15","state_id":"161","zone_id":"0","latitude":"-33.92001096720","longitude":"151.18517980900","created_at":null,"updated_at":null},
{"id":"408","name":"Tamworth","country_id":"15","state_id":"161","zone_id":"38","latitude":"-31.10261187870","longitude":"150.91713415400","created_at":null,"updated_at":null},
{"id":"409","name":"Taree","country_id":"15","state_id":"161","zone_id":"38","latitude":"-31.89760211310","longitude":"152.46184606900","created_at":null,"updated_at":null},
{"id":"410","name":"Tennant Creek","country_id":"15","state_id":"162","zone_id":"43","latitude":"-19.65002927770","longitude":"134.20001501400","created_at":null,"updated_at":null},
{"id":"411","name":"Thargomindah","country_id":"15","state_id":"163","zone_id":"0","latitude":"-27.99995888390","longitude":"143.81668900500","created_at":null,"updated_at":null},
{"id":"412","name":"Theodore","country_id":"15","state_id":"163","zone_id":"0","latitude":"-24.94949908570","longitude":"150.08333491900","created_at":null,"updated_at":null},
{"id":"413","name":"Three Springs","country_id":"15","state_id":"167","zone_id":"0","latitude":"-29.53330198280","longitude":"115.74997839300","created_at":null,"updated_at":null},
{"id":"414","name":"Tom Price","country_id":"15","state_id":"167","zone_id":"44","latitude":"-22.69346108110","longitude":"117.79305782000","created_at":null,"updated_at":null},
{"id":"415","name":"Toowoomba","country_id":"15","state_id":"163","zone_id":"40","latitude":"-27.56453326540","longitude":"151.95552038500","created_at":null,"updated_at":null},
{"id":"416","name":"Townsville","country_id":"15","state_id":"163","zone_id":"40","latitude":"-19.24995033890","longitude":"146.76999711000","created_at":null,"updated_at":null},
{"id":"417","name":"Traralgon","country_id":"15","state_id":"166","zone_id":"37","latitude":"-38.19959470750","longitude":"146.53001175900","created_at":null,"updated_at":null},
{"id":"418","name":"Tumby Bay","country_id":"15","state_id":"164","zone_id":"42","latitude":"-34.38292844770","longitude":"136.08331091200","created_at":null,"updated_at":null},
{"id":"419","name":"Tumut","country_id":"15","state_id":"161","zone_id":"38","latitude":"-35.30959023160","longitude":"148.22003780000","created_at":null,"updated_at":null},
{"id":"420","name":"Tweed Heads","country_id":"15","state_id":"161","zone_id":"0","latitude":"-28.18258339560","longitude":"153.54663773500","created_at":null,"updated_at":null},
{"id":"421","name":"Ulladulla","country_id":"15","state_id":"161","zone_id":"38","latitude":"-35.34953611370","longitude":"150.47002966200","created_at":null,"updated_at":null},
{"id":"422","name":"Victor Harbor","country_id":"15","state_id":"164","zone_id":"42","latitude":"-35.55960081100","longitude":"138.61731644600","created_at":null,"updated_at":null},
{"id":"423","name":"Wagga Wagga","country_id":"15","state_id":"161","zone_id":"38","latitude":"-35.12215981160","longitude":"147.33998815800","created_at":null,"updated_at":null},
{"id":"424","name":"Wagin","country_id":"15","state_id":"167","zone_id":"44","latitude":"-33.29958372110","longitude":"117.34998408900","created_at":null,"updated_at":null},
{"id":"425","name":"Wallaroo","country_id":"15","state_id":"164","zone_id":"42","latitude":"-33.93287839890","longitude":"137.63329382200","created_at":null,"updated_at":null},
{"id":"426","name":"Wangaratta","country_id":"15","state_id":"166","zone_id":"37","latitude":"-36.36001707080","longitude":"146.29999995800","created_at":null,"updated_at":null},
{"id":"427","name":"Warrnambool","country_id":"15","state_id":"166","zone_id":"37","latitude":"-38.37999713260","longitude":"142.47000117900","created_at":null,"updated_at":null},
{"id":"428","name":"Warwick","country_id":"15","state_id":"163","zone_id":"40","latitude":"-28.22924721400","longitude":"152.02032263100","created_at":null,"updated_at":null},
{"id":"429","name":"Weipa","country_id":"15","state_id":"163","zone_id":"0","latitude":"-12.66663124710","longitude":"141.86662715600","created_at":null,"updated_at":null},
{"id":"430","name":"Whyalla","country_id":"15","state_id":"164","zone_id":"42","latitude":"-33.02502683640","longitude":"137.56141190500","created_at":null,"updated_at":null},
{"id":"431","name":"Wilcannia","country_id":"15","state_id":"161","zone_id":"0","latitude":"-31.56620115280","longitude":"143.38333044300","created_at":null,"updated_at":null},
{"id":"432","name":"Windorah","country_id":"15","state_id":"163","zone_id":"0","latitude":"-25.43324216840","longitude":"142.65019689900","created_at":null,"updated_at":null},
{"id":"433","name":"Winton","country_id":"15","state_id":"163","zone_id":"0","latitude":"-22.39962888710","longitude":"143.03327429100","created_at":null,"updated_at":null},
{"id":"434","name":"Wollongong","country_id":"15","state_id":"161","zone_id":"38","latitude":"-34.41538124720","longitude":"150.89000402800","created_at":null,"updated_at":null},
{"id":"435","name":"Wonthaggi","country_id":"15","state_id":"166","zone_id":"37","latitude":"-38.60949216840","longitude":"145.59001745500","created_at":null,"updated_at":null},
{"id":"436","name":"Woomera","country_id":"15","state_id":"164","zone_id":"0","latitude":"-31.14958575560","longitude":"136.80001135200","created_at":null,"updated_at":null},
{"id":"437","name":"Wyndham","country_id":"15","state_id":"167","zone_id":"0","latitude":"-15.37395953490","longitude":"128.36006140000","created_at":null,"updated_at":null},
{"id":"438","name":"Yamba","country_id":"15","state_id":"161","zone_id":"0","latitude":"-29.42299136480","longitude":"153.35331197300","created_at":null,"updated_at":null},
{"id":"439","name":"Yeppoon","country_id":"15","state_id":"163","zone_id":"40","latitude":"-23.13291746130","longitude":"150.75673050900","created_at":null,"updated_at":null},
{"id":"440","name":"Young","country_id":"15","state_id":"161","zone_id":"38","latitude":"-34.30959959030","longitude":"148.29000769000","created_at":null,"updated_at":null},
{"id":"441","name":"Yulara","country_id":"15","state_id":"162","zone_id":"0","latitude":"-25.24054075240","longitude":"130.98889318800","created_at":null,"updated_at":null},
{"id":"442","name":"Bregenz","country_id":"16","state_id":"178","zone_id":"32","latitude":"47.51669706580","longitude":"9.76670158807","created_at":null,"updated_at":null},
{"id":"443","name":"Eisenstadt","country_id":"16","state_id":"171","zone_id":"32","latitude":"47.83329907870","longitude":"16.53329746760","created_at":null,"updated_at":null},
{"id":"444","name":"Graz","country_id":"16","state_id":"176","zone_id":"32","latitude":"47.07775819810","longitude":"15.41000484080","created_at":null,"updated_at":null},
{"id":"445","name":"Innsbruck","country_id":"16","state_id":"177","zone_id":"32","latitude":"47.28040732740","longitude":"11.40999059920","created_at":null,"updated_at":null},
{"id":"446","name":"Salzburg","country_id":"16","state_id":"175","zone_id":"32","latitude":"47.81047833160","longitude":"13.04002030300","created_at":null,"updated_at":null},
{"id":"447","name":"Vienna","country_id":"16","state_id":"179","zone_id":"32","latitude":"48.20001527820","longitude":"16.36663895540","created_at":null,"updated_at":null},
{"id":"448","name":"Agdam","country_id":"17","state_id":"242","zone_id":"48","latitude":"40.90527780000","longitude":"45.55638890000","created_at":null,"updated_at":null},
{"id":"449","name":"Goranboy","country_id":"17","state_id":"200","zone_id":"48","latitude":"40.61027780000","longitude":"46.78972220000","created_at":null,"updated_at":null},
{"id":"450","name":"Lankaran","country_id":"17","state_id":"186","zone_id":"0","latitude":"38.75400270490","longitude":"48.85106441120","created_at":null,"updated_at":null},
{"id":"451","name":"Tovuz","country_id":"17","state_id":"242","zone_id":"48","latitude":"40.99222220000","longitude":"45.62888890000","created_at":null,"updated_at":null},
{"id":"452","name":"Yevlax","country_id":"17","state_id":"251","zone_id":"48","latitude":"40.61719647120","longitude":"47.15003128950","created_at":null,"updated_at":null},
{"id":"453","name":"Bubanza","country_id":"18","state_id":"255","zone_id":"56","latitude":"-3.08330098404","longitude":"29.36670351250","created_at":null,"updated_at":null},
{"id":"454","name":"Bujumbura","country_id":"18","state_id":"257","zone_id":"56","latitude":"-3.37608722037","longitude":"29.36000606150","created_at":null,"updated_at":null},
{"id":"455","name":"Bururi","country_id":"18","state_id":"258","zone_id":"56","latitude":"-3.95072914746","longitude":"29.61657954790","created_at":null,"updated_at":null},
{"id":"456","name":"Cankuzo","country_id":"18","state_id":"259","zone_id":"56","latitude":"-3.16670392087","longitude":"30.51669662310","created_at":null,"updated_at":null},
{"id":"457","name":"Gitega","country_id":"18","state_id":"266","zone_id":"56","latitude":"-3.42600665397","longitude":"29.84359411490","created_at":null,"updated_at":null},
{"id":"458","name":"Karusi","country_id":"18","state_id":"263","zone_id":"56","latitude":"-3.09999596849","longitude":"30.16299648350","created_at":null,"updated_at":null},
{"id":"459","name":"Kayanza","country_id":"18","state_id":"264","zone_id":"56","latitude":"-2.89999787893","longitude":"29.56670160200","created_at":null,"updated_at":null},
{"id":"460","name":"Kirundo","country_id":"18","state_id":"262","zone_id":"56","latitude":"-2.58472220000","longitude":"30.09722220000","created_at":null,"updated_at":null},
{"id":"461","name":"Makamba","country_id":"18","state_id":"265","zone_id":"56","latitude":"-4.13330390331","longitude":"29.79999963740","created_at":null,"updated_at":null},
{"id":"462","name":"Muramvya","country_id":"18","state_id":"266","zone_id":"56","latitude":"-3.26099700633","longitude":"29.61199861660","created_at":null,"updated_at":null},
{"id":"463","name":"Muyinga","country_id":"18","state_id":"268","zone_id":"56","latitude":"-2.85234657910","longitude":"30.31726029330","created_at":null,"updated_at":null},
{"id":"464","name":"Ngozi","country_id":"18","state_id":"269","zone_id":"56","latitude":"-2.91200388389","longitude":"29.82500157050","created_at":null,"updated_at":null},
{"id":"465","name":"Rutana","country_id":"18","state_id":"270","zone_id":"56","latitude":"-3.93100195025","longitude":"29.99300455300","created_at":null,"updated_at":null},
{"id":"466","name":"Ruyigi","country_id":"18","state_id":"271","zone_id":"56","latitude":"-3.48100190480","longitude":"30.24399659760","created_at":null,"updated_at":null},
{"id":"467","name":"Antwerpen","country_id":"19","state_id":"273","zone_id":"52","latitude":"51.22037355460","longitude":"4.41501704776","created_at":null,"updated_at":null},
{"id":"468","name":"Brussels","country_id":"19","state_id":"272","zone_id":"52","latitude":"50.83331707670","longitude":"4.33331660830","created_at":null,"updated_at":null},
{"id":"469","name":"Gent","country_id":"19","state_id":"276","zone_id":"52","latitude":"51.02999757800","longitude":"3.70002193057","created_at":null,"updated_at":null},
{"id":"470","name":"Hasselt","country_id":"19","state_id":"275","zone_id":"52","latitude":"50.96400317480","longitude":"5.48399756100","created_at":null,"updated_at":null},
{"id":"471","name":"Liege","country_id":"19","state_id":"280","zone_id":"52","latitude":"50.62999615390","longitude":"5.58001053734","created_at":null,"updated_at":null},
{"id":"472","name":"Mons","country_id":"19","state_id":"279","zone_id":"52","latitude":"50.44599910900","longitude":"3.93900356095","created_at":null,"updated_at":null},
{"id":"473","name":"Namur","country_id":"19","state_id":"282","zone_id":"52","latitude":"50.47039349270","longitude":"4.87002803409","created_at":null,"updated_at":null},
{"id":"474","name":"Abomey","country_id":"20","state_id":"294","zone_id":"57","latitude":"7.19039959607","longitude":"1.98999710960","created_at":null,"updated_at":null},
{"id":"475","name":"Djougou","country_id":"20","state_id":"288","zone_id":"57","latitude":"9.70042726535","longitude":"1.68004186871","created_at":null,"updated_at":null},
{"id":"476","name":"Kandi","country_id":"20","state_id":"284","zone_id":"57","latitude":"11.13036582330","longitude":"2.94001664085","created_at":null,"updated_at":null},
{"id":"477","name":"Lokossa","country_id":"20","state_id":"291","zone_id":"57","latitude":"6.61500009233","longitude":"1.71500445721","created_at":null,"updated_at":null},
{"id":"478","name":"Natitingou","country_id":"20","state_id":"283","zone_id":"57","latitude":"10.32041526180","longitude":"1.38998205426","created_at":null,"updated_at":null},
{"id":"479","name":"Ouidah","country_id":"20","state_id":"285","zone_id":"57","latitude":"6.36037274060","longitude":"2.08999100608","created_at":null,"updated_at":null},
{"id":"480","name":"Parakou","country_id":"20","state_id":"286","zone_id":"57","latitude":"9.34000998833","longitude":"2.62003617210","created_at":null,"updated_at":null},
{"id":"481","name":"Bobo Dioulasso","country_id":"21","state_id":"306","zone_id":"53","latitude":"11.17997519830","longitude":"-4.28998132467","created_at":null,"updated_at":null},
{"id":"482","name":"Bogande","country_id":"21","state_id":"304","zone_id":"53","latitude":"12.96900003240","longitude":"-0.13799649999","created_at":null,"updated_at":null},
{"id":"483","name":"Boulsa","country_id":"21","state_id":"319","zone_id":"53","latitude":"12.65699714130","longitude":"-0.56899753201","created_at":null,"updated_at":null},
{"id":"484","name":"Dedougou","country_id":"21","state_id":"318","zone_id":"53","latitude":"12.45500100210","longitude":"-3.46400043904","created_at":null,"updated_at":null},
{"id":"485","name":"Diapaga","country_id":"21","state_id":"333","zone_id":"53","latitude":"12.07700107640","longitude":"1.79600457130","created_at":null,"updated_at":null},
{"id":"486","name":"Diebougou","country_id":"21","state_id":"299","zone_id":"53","latitude":"10.95200112830","longitude":"-3.24800041060","created_at":null,"updated_at":null},
{"id":"487","name":"Djibo","country_id":"21","state_id":"331","zone_id":"53","latitude":"14.09900404090","longitude":"-1.62700142072","created_at":null,"updated_at":null},
{"id":"488","name":"Fada Ngourma","country_id":"21","state_id":"305","zone_id":"53","latitude":"12.05499605230","longitude":"0.36099945083","created_at":null,"updated_at":null},
{"id":"489","name":"Gaoua","country_id":"21","state_id":"322","zone_id":"53","latitude":"10.32499810610","longitude":"-3.17400240659","created_at":null,"updated_at":null},
{"id":"490","name":"Gorom Gorom","country_id":"21","state_id":"324","zone_id":"53","latitude":"14.45000398370","longitude":"-0.23329754642","created_at":null,"updated_at":null},
{"id":"491","name":"Kaya","country_id":"21","state_id":"329","zone_id":"53","latitude":"13.09037538550","longitude":"-1.09004744608","created_at":null,"updated_at":null},
{"id":"492","name":"Koupela","country_id":"21","state_id":"314","zone_id":"53","latitude":"12.17700003850","longitude":"-0.35600351424","created_at":null,"updated_at":null},
{"id":"493","name":"Leo","country_id":"21","state_id":"328","zone_id":"53","latitude":"11.09400298720","longitude":"-2.09799852930","created_at":null,"updated_at":null},
{"id":"494","name":"Nouna","country_id":"21","state_id":"313","zone_id":"53","latitude":"12.72899709570","longitude":"-3.86000051875","created_at":null,"updated_at":null},
{"id":"495","name":"Ouagadougou","country_id":"21","state_id":"308","zone_id":"53","latitude":"12.37031597790","longitude":"-1.52472375630","created_at":null,"updated_at":null},
{"id":"496","name":"Ouahigouya","country_id":"21","state_id":"336","zone_id":"53","latitude":"13.57042360330","longitude":"-2.41999210754","created_at":null,"updated_at":null},
{"id":"497","name":"Po","country_id":"21","state_id":"320","zone_id":"53","latitude":"11.16900001610","longitude":"-1.13499847837","created_at":null,"updated_at":null},
{"id":"498","name":"Sapouy","country_id":"21","state_id":"337","zone_id":"53","latitude":"11.55444440000","longitude":"-1.77361110000","created_at":null,"updated_at":null},
{"id":"499","name":"Sebba","country_id":"21","state_id":"335","zone_id":"53","latitude":"13.43641220000","longitude":"0.53044300000","created_at":null,"updated_at":null},
{"id":"500","name":"Solenzo","country_id":"21","state_id":"297","zone_id":"53","latitude":"12.18333330000","longitude":"-4.08333330000","created_at":null,"updated_at":null},
{"id":"501","name":"Tenkodogo","country_id":"21","state_id":"300","zone_id":"53","latitude":"11.78040366510","longitude":"-0.36970381815","created_at":null,"updated_at":null},
{"id":"502","name":"Tougan","country_id":"21","state_id":"332","zone_id":"53","latitude":"13.06899899450","longitude":"-3.06999840903","created_at":null,"updated_at":null},
{"id":"503","name":"Ziniare","country_id":"21","state_id":"323","zone_id":"53","latitude":"12.57699605210","longitude":"-1.29300244167","created_at":null,"updated_at":null},
{"id":"504","name":"Zorgo","country_id":"21","state_id":"303","zone_id":"53","latitude":"12.24299707310","longitude":"-0.61100042890","created_at":null,"updated_at":null},
{"id":"505","name":"Barisal","country_id":"22","state_id":"340","zone_id":"51","latitude":"22.70040895490","longitude":"90.37498978570","created_at":null,"updated_at":null},
{"id":"506","name":"Chittagong","country_id":"22","state_id":"341","zone_id":"51","latitude":"22.32999228820","longitude":"91.79996740620","created_at":null,"updated_at":null},
{"id":"507","name":"Comilla","country_id":"22","state_id":"341","zone_id":"51","latitude":"23.47041363420","longitude":"91.16998002010","created_at":null,"updated_at":null},
{"id":"508","name":"Dhaka","country_id":"22","state_id":"342","zone_id":"51","latitude":"23.72305971170","longitude":"90.40857946670","created_at":null,"updated_at":null},
{"id":"509","name":"Jamalpur","country_id":"22","state_id":"342","zone_id":"51","latitude":"24.90042970680","longitude":"89.95000280660","created_at":null,"updated_at":null},
{"id":"510","name":"Jessore","country_id":"22","state_id":"343","zone_id":"51","latitude":"23.17043194480","longitude":"89.19997106830","created_at":null,"updated_at":null},
{"id":"511","name":"Khulna","country_id":"22","state_id":"343","zone_id":"51","latitude":"22.83998699850","longitude":"89.56000077210","created_at":null,"updated_at":null},
{"id":"512","name":"Mymensingh","country_id":"22","state_id":"342","zone_id":"51","latitude":"24.75041302390","longitude":"90.38000239970","created_at":null,"updated_at":null},
{"id":"513","name":"Narayanganj","country_id":"22","state_id":"342","zone_id":"51","latitude":"23.62040447900","longitude":"90.49999507540","created_at":null,"updated_at":null},
{"id":"514","name":"Nawabganj","country_id":"22","state_id":"344","zone_id":"51","latitude":"24.58039756160","longitude":"88.34999710990","created_at":null,"updated_at":null},
{"id":"515","name":"Pabna","country_id":"22","state_id":"344","zone_id":"51","latitude":"24.00038128560","longitude":"89.24999385470","created_at":null,"updated_at":null},
{"id":"516","name":"Rajshahi","country_id":"22","state_id":"344","zone_id":"51","latitude":"24.37498374330","longitude":"88.60502030330","created_at":null,"updated_at":null},
{"id":"517","name":"Rangpur","country_id":"22","state_id":"344","zone_id":"51","latitude":"25.75001609190","longitude":"89.28001786190","created_at":null,"updated_at":null},
{"id":"518","name":"Saidpur","country_id":"22","state_id":"344","zone_id":"0","latitude":"25.80042645160","longitude":"88.99998327530","created_at":null,"updated_at":null},
{"id":"519","name":"Sylhet","country_id":"22","state_id":"346","zone_id":"51","latitude":"24.90355613100","longitude":"91.87360632220","created_at":null,"updated_at":null},
{"id":"520","name":"Tangail","country_id":"22","state_id":"342","zone_id":"51","latitude":"24.24997845360","longitude":"89.92003047580","created_at":null,"updated_at":null},
{"id":"521","name":"Burgas","country_id":"23","state_id":"348","zone_id":"54","latitude":"42.51460003570","longitude":"27.47464310580","created_at":null,"updated_at":null},
{"id":"522","name":"Dobrich","country_id":"23","state_id":"354","zone_id":"54","latitude":"43.58505149240","longitude":"27.83999548210","created_at":null,"updated_at":null},
{"id":"523","name":"Khaskovo","country_id":"23","state_id":"372","zone_id":"54","latitude":"41.94378216460","longitude":"25.56328690460","created_at":null,"updated_at":null},
{"id":"524","name":"Kyustendil","country_id":"23","state_id":"356","zone_id":"54","latitude":"42.28427817690","longitude":"22.69111079780","created_at":null,"updated_at":null},
{"id":"525","name":"Lovec","country_id":"23","state_id":"357","zone_id":"54","latitude":"43.13799911220","longitude":"24.71900458960","created_at":null,"updated_at":null},
{"id":"526","name":"Montana","country_id":"23","state_id":"358","zone_id":"54","latitude":"43.41400202610","longitude":"23.23700161340","created_at":null,"updated_at":null},
{"id":"527","name":"Pernik","country_id":"23","state_id":"360","zone_id":"54","latitude":"42.60999472970","longitude":"23.02271846380","created_at":null,"updated_at":null},
{"id":"528","name":"Pleven","country_id":"23","state_id":"361","zone_id":"54","latitude":"43.42376934720","longitude":"24.61337072620","created_at":null,"updated_at":null},
{"id":"529","name":"Plovdiv","country_id":"23","state_id":"362","zone_id":"54","latitude":"42.15397605290","longitude":"24.75398229850","created_at":null,"updated_at":null},
{"id":"530","name":"Razgrad","country_id":"23","state_id":"363","zone_id":"54","latitude":"43.53399902650","longitude":"26.53599663350","created_at":null,"updated_at":null},
{"id":"531","name":"Ruse","country_id":"23","state_id":"364","zone_id":"54","latitude":"43.85369142560","longitude":"25.97333939480","created_at":null,"updated_at":null},
{"id":"532","name":"Shumen","country_id":"23","state_id":"373","zone_id":"54","latitude":"43.27000612290","longitude":"26.92935339220","created_at":null,"updated_at":null},
{"id":"533","name":"Sliven","country_id":"23","state_id":"366","zone_id":"54","latitude":"42.67937034000","longitude":"26.33001013050","created_at":null,"updated_at":null},
{"id":"534","name":"Sofia","country_id":"23","state_id":"368","zone_id":"54","latitude":"42.68334942530","longitude":"23.31665401070","created_at":null,"updated_at":null},
{"id":"535","name":"Stara Zagora","country_id":"23","state_id":"370","zone_id":"54","latitude":"42.42313275050","longitude":"25.62271480170","created_at":null,"updated_at":null},
{"id":"536","name":"Turnovo","country_id":"23","state_id":"350","zone_id":"0","latitude":"43.08624472970","longitude":"25.65552933630","created_at":null,"updated_at":null},
{"id":"537","name":"Varna","country_id":"23","state_id":"349","zone_id":"54","latitude":"43.21564251610","longitude":"27.89528926460","created_at":null,"updated_at":null},
{"id":"538","name":"Vratsa","country_id":"23","state_id":"352","zone_id":"54","latitude":"43.20998394680","longitude":"23.56253047560","created_at":null,"updated_at":null},
{"id":"539","name":"Sarajevo","country_id":"26","state_id":"417","zone_id":"49","latitude":"43.85002239900","longitude":"18.38300166700","created_at":null,"updated_at":null},
{"id":"540","name":"Babruysk","country_id":"29","state_id":"428","zone_id":"82","latitude":"53.12656211250","longitude":"29.19278112660","created_at":null,"updated_at":null},
{"id":"541","name":"Baranavichy","country_id":"29","state_id":"424","zone_id":"82","latitude":"53.13684572260","longitude":"26.01344030630","created_at":null,"updated_at":null},
{"id":"542","name":"Barysaw","country_id":"29","state_id":"425","zone_id":"82","latitude":"54.22600404780","longitude":"28.49215205760","created_at":null,"updated_at":null},
{"id":"543","name":"Brest","country_id":"29","state_id":"424","zone_id":"82","latitude":"52.09998394680","longitude":"23.69998978550","created_at":null,"updated_at":null},
{"id":"544","name":"Homyel","country_id":"29","state_id":"426","zone_id":"82","latitude":"52.43001548170","longitude":"31.00000931670","created_at":null,"updated_at":null},
{"id":"545","name":"Hrodna","country_id":"29","state_id":"427","zone_id":"82","latitude":"53.67787213040","longitude":"23.83409012730","created_at":null,"updated_at":null},
{"id":"546","name":"Lida","country_id":"29","state_id":"427","zone_id":"82","latitude":"53.88847943020","longitude":"25.28464758170","created_at":null,"updated_at":null},
{"id":"547","name":"Mahilyow","country_id":"29","state_id":"428","zone_id":"82","latitude":"53.89850465810","longitude":"30.32465002310","created_at":null,"updated_at":null},
{"id":"548","name":"Maladzyechna","country_id":"29","state_id":"425","zone_id":"82","latitude":"54.31878908190","longitude":"26.86532629260","created_at":null,"updated_at":null},
{"id":"549","name":"Mazyr","country_id":"29","state_id":"426","zone_id":"82","latitude":"52.04595623690","longitude":"29.27215612660","created_at":null,"updated_at":null},
{"id":"550","name":"Minsk","country_id":"29","state_id":"425","zone_id":"82","latitude":"53.89997743640","longitude":"27.56662715530","created_at":null,"updated_at":null},
{"id":"551","name":"Orsha","country_id":"29","state_id":"430","zone_id":"82","latitude":"54.51531455390","longitude":"30.42154333370","created_at":null,"updated_at":null},
{"id":"552","name":"Pinsk","country_id":"29","state_id":"424","zone_id":"82","latitude":"52.12786338210","longitude":"26.09405554070","created_at":null,"updated_at":null},
{"id":"553","name":"Polatsk","country_id":"29","state_id":"430","zone_id":"82","latitude":"55.48938946440","longitude":"28.78598425160","created_at":null,"updated_at":null},
{"id":"554","name":"Vitsyebsk","country_id":"29","state_id":"430","zone_id":"82","latitude":"55.18871014310","longitude":"30.18533036170","created_at":null,"updated_at":null},
{"id":"555","name":"Belize City","country_id":"30","state_id":"431","zone_id":"83","latitude":"17.49871095680","longitude":"-88.18837447280","created_at":null,"updated_at":null},
{"id":"556","name":"Belmopan","country_id":"30","state_id":"432","zone_id":"83","latitude":"17.25203350720","longitude":"-88.76707299980","created_at":null,"updated_at":null},
{"id":"557","name":"Corozal","country_id":"30","state_id":"433","zone_id":"83","latitude":"18.39799811390","longitude":"-88.38800050370","created_at":null,"updated_at":null},
{"id":"558","name":"Dangriga","country_id":"30","state_id":"435","zone_id":"83","latitude":"16.97003521620","longitude":"-88.22000044940","created_at":null,"updated_at":null},
{"id":"559","name":"El Cayo","country_id":"30","state_id":"432","zone_id":"0","latitude":"17.15599807450","longitude":"-89.06100252220","created_at":null,"updated_at":null},
{"id":"560","name":"Orange Walk","country_id":"30","state_id":"434","zone_id":"83","latitude":"18.09043194480","longitude":"-88.55997969740","created_at":null,"updated_at":null},
{"id":"561","name":"Punta Gorda","country_id":"30","state_id":"436","zone_id":"83","latitude":"16.10034669900","longitude":"-88.81001611510","created_at":null,"updated_at":null},
{"id":"562","name":"Achacachi","country_id":"32","state_id":"451","zone_id":"61","latitude":"-16.08332192090","longitude":"-68.66656864590","created_at":null,"updated_at":null},
{"id":"563","name":"Aiquile","country_id":"32","state_id":"449","zone_id":"61","latitude":"-18.18954994830","longitude":"-65.18001143560","created_at":null,"updated_at":null},
{"id":"564","name":"Apolo","country_id":"32","state_id":"451","zone_id":"0","latitude":"-14.71958087280","longitude":"-68.41999454920","created_at":null,"updated_at":null},
{"id":"565","name":"Ascension","country_id":"32","state_id":"455","zone_id":"61","latitude":"-15.69957273470","longitude":"-63.07998458010","created_at":null,"updated_at":null},
{"id":"566","name":"Baures","country_id":"32","state_id":"448","zone_id":"0","latitude":"-13.58001218790","longitude":"-63.58005741540","created_at":null,"updated_at":null},
{"id":"567","name":"Bermejo","country_id":"32","state_id":"456","zone_id":"0","latitude":"-22.72958290730","longitude":"-64.34998458010","created_at":null,"updated_at":null},
{"id":"568","name":"Camargo","country_id":"32","state_id":"450","zone_id":"61","latitude":"-20.63958127970","longitude":"-65.20998376630","created_at":null,"updated_at":null},
{"id":"569","name":"Camiri","country_id":"32","state_id":"455","zone_id":"61","latitude":"-20.05000486370","longitude":"-63.51998356290","created_at":null,"updated_at":null},